,Country,City,Overall_AQI_Value,Overall_AQI_Category,CO_AQI_Value,CO_AQI_Category,Ozone_AQI_Value,Ozone_AQI_Category,NO2_AQI_Value,NO2_AQI_Category,PM2.5_AQI_Value,PM2.5_AQI_Category,Latitude,Longitude,Continent
0,Russia,Praskoveya,51,Moderate,1,Good,36,Good,0,Good,51,Moderate,44.7444,44.2031,Asia
1,Brazil,Presidente Dutra,41,Good,1,Good,5,Good,1,Good,41,Good,-5.29,-44.49,South America
2,Italy,Priolo Gargallo,66,Moderate,1,Good,39,Good,2,Good,66,Moderate,37.1667,15.1833,Europe
3,Poland,Przasnysz,34,Good,1,Good,34,Good,0,Good,20,Good,53.0167,20.8833,Europe
4,United States,Punta Gorda,54,Moderate,1,Good,14,Good,11,Good,54,Moderate,16.1005,-88.8074,North America
5,Belgium,Puurs,64,Moderate,1,Good,29,Good,7,Good,64,Moderate,51.0761,4.2803,Europe
6,Russia,Pyatigorsk,54,Moderate,1,Good,41,Good,1,Good,54,Moderate,44.05,43.0667,Asia
7,China,Qinzhou,68,Moderate,2,Good,68,Moderate,1,Good,58,Moderate,21.95,108.6167,Asia
8,Netherlands,Raalte,41,Good,1,Good,24,Good,6,Good,41,Good,52.3833,6.2667,Europe
9,France,Raismes,59,Moderate,1,Good,30,Good,4,Good,59,Moderate,50.3892,3.4858,Europe
10,Italy,Ramacca,55,Moderate,1,Good,47,Good,0,Good,55,Moderate,37.3833,14.7,Europe
11,United States,Phoenix,72,Moderate,1,Good,4,Good,23,Good,72,Moderate,33.5722,-112.0892,North America
12,Poland,Piaseczno,28,Good,1,Good,28,Good,2,Good,28,Good,52.0667,21.0167,Europe
13,Brazil,Pinheiral,154,Unhealthy,5,Good,0,Good,13,Good,154,Unhealthy,-22.5128,-44.0008,South America
14,Colombia,Plato,67,Moderate,1,Good,16,Good,2,Good,67,Moderate,9.7919,-74.7872,South America
15,Romania,Poiana Mare,62,Moderate,1,Good,37,Good,1,Good,62,Moderate,43.9333,23.0833,Europe
16,Russia,Polevskoy,31,Good,1,Good,31,Good,0,Good,17,Good,56.45,60.1833,Asia
17,France,Pontarlier,56,Moderate,1,Good,35,Good,0,Good,56,Moderate,46.9061,6.3547,Europe
18,United States,Pontiac,77,Moderate,2,Good,22,Good,15,Good,77,Moderate,42.6493,-83.2878,North America
19,Indonesia,Pontianak,44,Good,1,Good,15,Good,0,Good,44,Good,-0.0206,109.3414,Asia
20,Brazil,Porecatu,30,Good,1,Good,9,Good,2,Good,30,Good,-22.7558,-51.3789,South America
21,Finland,Pori,30,Good,1,Good,30,Good,1,Good,15,Good,61.4833,21.8,Europe
22,South Africa,Port Elizabeth,79,Moderate,3,Good,18,Good,5,Good,79,Moderate,-33.9581,25.6,Africa
23,United States,Port Neches,34,Good,1,Good,19,Good,7,Good,34,Good,29.9765,-93.9459,North America
24,United Kingdom,Port Talbot,51,Moderate,1,Good,20,Good,5,Good,51,Moderate,51.5906,-3.7986,Europe
25,United States,Portales,77,Moderate,1,Good,34,Good,0,Good,77,Moderate,34.1754,-103.3565,North America
26,United States,Post Falls,61,Moderate,1,Good,32,Good,3,Good,61,Moderate,47.7213,-116.9384,North America
27,Brazil,Pouso Alegre,32,Good,1,Good,7,Good,2,Good,32,Good,-22.2281,-45.9336,South America
28,Russia,Dalnegorsk,29,Good,0,Good,29,Good,0,Good,25,Good,44.55,135.5833,Asia
29,India,Darbhanga,247,Very Unhealthy,3,Good,162,Unhealthy,1,Good,247,Very Unhealthy,26.17,85.9,Asia
30,United States,Dayton,45,Good,1,Good,32,Good,7,Good,45,Good,39.7805,-84.2003,North America
31,Belgium,Deinze,36,Good,1,Good,25,Good,3,Good,36,Good,50.9833,3.5333,Europe
32,Haiti,Delmas,124,Unhealthy for Sensitive Groups,2,Good,15,Good,5,Good,124,Unhealthy for Sensitive Groups,18.55,-72.3,North America
33,United States,Deming,72,Moderate,1,Good,26,Good,2,Good,72,Moderate,32.2631,-107.7525,North America
34,United Kingdom,Denton,55,Moderate,0,Good,32,Good,1,Good,55,Moderate,33.2175,-97.1418,Europe
35,United States,Destin,31,Good,0,Good,31,Good,0,Good,25,Good,30.395,-86.4701,North America
36,India,Dharmapuri,60,Moderate,1,Good,31,Good,1,Good,60,Moderate,12.127,78.158,Asia
37,Philippines,Dipolog,30,Good,1,Good,17,Good,0,Good,30,Good,8.5872,123.3408,Asia
38,Latvia,Dobele,44,Good,1,Good,34,Good,0,Good,44,Good,56.6167,23.2667,Europe
39,United States,Grandville,47,Good,1,Good,37,Good,4,Good,47,Good,42.9004,-85.7564,North America
40,Netherlands,Grave,37,Good,0,Good,32,Good,2,Good,37,Good,51.7667,5.7333,Europe
41,United States,Green Valley,44,Good,1,Good,14,Good,8,Good,44,Good,31.8393,-111.0009,North America
42,United States,Greendale,58,Moderate,2,Good,14,Good,24,Good,58,Moderate,42.9371,-88.0018,North America
43,Colombia,Guamo,89,Moderate,3,Good,3,Good,6,Good,89,Moderate,4.0833,-74.9167,South America
44,Italy,Guardiagrele,52,Moderate,2,Good,38,Good,7,Good,52,Moderate,42.2,14.2167,Europe
45,United Kingdom,Guildford,51,Moderate,1,Good,25,Good,6,Good,51,Moderate,51.2365,-0.5703,Europe
46,Russia,Gukovo,38,Good,1,Good,38,Good,0,Good,13,Good,48.05,39.9167,Asia
47,United States,Hazelwood,88,Moderate,2,Good,11,Good,20,Good,88,Moderate,38.7931,-90.3899,North America
48,Germany,Heddesheim,54,Moderate,1,Good,31,Good,3,Good,54,Moderate,49.5053,8.6033,Europe
49,Germany,Heiligenhaus,44,Good,1,Good,28,Good,3,Good,44,Good,51.3167,6.9667,Europe
50,United Kingdom,Hemel Hempstead,51,Moderate,1,Good,26,Good,6,Good,51,Moderate,51.7526,-0.4692,Europe
51,United States,Hicksville,67,Moderate,2,Good,15,Good,23,Good,67,Moderate,40.7637,-73.5245,North America
52,Germany,Haiger,49,Good,1,Good,25,Good,3,Good,49,Good,50.7422,8.2039,Europe
53,China,Hangzhou,203,Very Unhealthy,5,Good,203,Very Unhealthy,5,Good,151,Unhealthy,30.25,120.1675,Asia
54,Germany,Harrislee,35,Good,0,Good,32,Good,0,Good,35,Good,54.7972,9.3764,Europe
55,United States,Harrison,90,Moderate,1,Good,25,Good,2,Good,90,Moderate,40.7431,-74.1531,North America
56,Germany,Hasbergen,36,Good,0,Good,34,Good,1,Good,36,Good,52.2167,7.9167,Europe
57,France,Haubourdin,48,Good,1,Good,28,Good,4,Good,48,Good,50.6092,2.9869,Europe
58,United States,Taunton,41,Good,1,Good,28,Good,10,Good,41,Good,51.019,-3.1,North America
59,New Zealand,Tauranga,19,Good,0,Good,19,Good,1,Good,17,Good,-37.6833,176.1667,Oceania
60,Italy,Teano,47,Good,1,Good,47,Good,1,Good,36,Good,41.25,14.0667,Europe
61,India,Tekkali,155,Unhealthy,3,Good,82,Moderate,1,Good,155,Unhealthy,18.6057,84.2355,Asia
62,Brazil,Teodoro Sampaio,46,Good,1,Good,9,Good,1,Good,46,Good,-22.5328,-52.1678,South America
63,Mexico,Tequila,64,Moderate,1,Good,15,Good,2,Good,64,Moderate,20.8794,-103.8356,North America
64,Italy,Teramo,44,Good,1,Good,44,Good,1,Good,38,Good,42.6589,13.7039,Europe
65,China,Tianjin,142,Unhealthy for Sensitive Groups,4,Good,113,Unhealthy for Sensitive Groups,9,Good,142,Unhealthy for Sensitive Groups,39.1467,117.2056,Asia
66,Philippines,Toboso,54,Moderate,1,Good,20,Good,0,Good,54,Moderate,10.7167,123.5167,Asia
67,Japan,Tokorozawa,60,Moderate,1,Good,44,Good,3,Good,60,Moderate,35.7996,139.4686,Asia
68,Mexico,Toluca,166,Unhealthy,4,Good,8,Good,19,Good,166,Unhealthy,19.2925,-99.6569,North America
69,Brazil,Itapissuma,27,Good,0,Good,23,Good,1,Good,27,Good,-7.7764,-34.8919,South America
70,Brazil,Itarantim,23,Good,1,Good,7,Good,1,Good,23,Good,-15.66,-40.0658,South America
71,Brazil,Itumbiara,31,Good,1,Good,13,Good,0,Good,31,Good,-18.4167,-49.2167,South America
72,El Salvador,Izalco,90,Moderate,2,Good,22,Good,9,Good,90,Moderate,13.7333,-89.6667,North America
73,Russia,Izberbash,51,Moderate,1,Good,38,Good,0,Good,51,Moderate,42.5633,47.8636,Asia
74,India,Jabalpur,170,Unhealthy,1,Good,38,Good,0,Good,170,Unhealthy,23.1667,79.9333,Asia
75,Brazil,Jaguaquara,22,Good,0,Good,9,Good,1,Good,22,Good,-13.5308,-39.9708,South America
76,Poland,Jarocin,47,Good,1,Good,27,Good,2,Good,47,Good,51.9667,17.5,Europe
77,Philippines,Jasaan,59,Moderate,1,Good,32,Good,0,Good,59,Moderate,8.65,124.75,Asia
78,Nigeria,Ilobu,133,Unhealthy for Sensitive Groups,4,Good,23,Good,3,Good,133,Unhealthy for Sensitive Groups,7.84,4.486,Africa
79,Finland,Imatra,29,Good,1,Good,29,Good,1,Good,7,Good,61.1833,28.7667,Europe
80,Brazil,Indaial,73,Moderate,2,Good,2,Good,8,Good,73,Moderate,-26.8978,-49.2319,South America
81,Philippines,Indang,50,Good,0,Good,24,Good,0,Good,50,Good,14.2,120.8833,Asia
82,Brazil,Itagi,25,Good,0,Good,9,Good,1,Good,25,Good,-14.1628,-40.0058,South America
83,Nigeria,Iseyin,90,Moderate,3,Good,18,Good,2,Good,90,Moderate,7.9667,3.6,Africa
84,Mexico,Isla,81,Moderate,2,Good,26,Good,3,Good,81,Moderate,18.0292,-95.5264,North America
85,Brazil,Itaitinga,29,Good,0,Good,20,Good,1,Good,29,Good,-3.9689,-38.5278,South America
86,Brazil,Itapemirim,44,Good,1,Good,16,Good,1,Good,44,Good,-21.0108,-40.8339,South America
87,South Sudan,Torit,65,Moderate,1,Good,12,Good,0,Good,65,Moderate,4.4081,32.575,Africa
88,United States,Trenton,53,Moderate,1,Good,28,Good,10,Good,53,Moderate,40.2237,-74.7641,North America
89,United States,Trujillo Alto,56,Moderate,0,Good,23,Good,0,Good,56,Moderate,18.3599,-66.0096,North America
90,Ireland,Tullamore,57,Moderate,1,Good,26,Good,3,Good,57,Moderate,53.2667,-7.5,Europe
91,Turkey,Tunceli,62,Moderate,0,Good,35,Good,0,Good,62,Moderate,39.1064,39.5472,Europe
92,United States,Two Rivers,49,Good,1,Good,27,Good,4,Good,49,Good,44.1565,-87.5824,North America
93,Russia,Tyukalinsk,34,Good,1,Good,34,Good,0,Good,32,Good,55.8667,72.2,Asia
94,India,Umaria,163,Unhealthy,2,Good,92,Moderate,0,Good,163,Unhealthy,23.5247,80.8372,Asia
95,United States,Willowbrook,126,Unhealthy for Sensitive Groups,4,Good,3,Good,36,Good,126,Unhealthy for Sensitive Groups,33.9209,-118.2356,North America
96,United States,Wilmette,63,Moderate,2,Good,9,Good,22,Good,63,Moderate,42.0771,-87.7282,North America
97,United States,Wolf Trap,53,Moderate,2,Good,27,Good,10,Good,53,Moderate,38.9395,-77.2842,North America
98,United States,Woodhaven,86,Moderate,2,Good,38,Good,10,Good,86,Moderate,42.132,-83.2374,North America
99,China,Xushan,112,Unhealthy for Sensitive Groups,2,Good,44,Good,4,Good,112,Unhealthy for Sensitive Groups,30.1697,121.2665,Asia
100,China,Yancheng,155,Unhealthy,3,Good,155,Unhealthy,2,Good,151,Unhealthy,33.3936,120.1339,Asia
101,Congo,Yangambi,121,Unhealthy for Sensitive Groups,4,Good,24,Good,0,Good,121,Unhealthy for Sensitive Groups,0.7675,24.4414,Africa
102,China,Yanji,69,Moderate,2,Good,48,Good,0,Good,69,Moderate,42.9044,129.5067,Asia
103,United States,Yankton,47,Good,1,Good,34,Good,3,Good,47,Good,42.8901,-97.3927,North America
104,Germany,Wenden,69,Moderate,1,Good,34,Good,4,Good,69,Moderate,50.9667,7.8667,Europe
105,Belgium,Wetteren,64,Moderate,1,Good,32,Good,6,Good,64,Moderate,51.0,3.8833,Europe
106,Canada,Whitehorse,20,Good,1,Good,20,Good,1,Good,10,Good,60.7029,-135.0691,North America
107,Ireland,Wicklow,38,Good,1,Good,30,Good,3,Good,38,Good,52.9779,-6.033,Europe
108,Switzerland,Wil,59,Moderate,1,Good,27,Good,3,Good,59,Moderate,47.4667,9.05,Europe
109,Germany,Wildeshausen,67,Moderate,1,Good,30,Good,5,Good,67,Moderate,52.9,8.4333,Europe
110,United States,Williamsport,75,Moderate,2,Good,13,Good,16,Good,75,Moderate,41.2399,-77.037,North America
111,United States,Fox Lake,60,Moderate,2,Good,18,Good,21,Good,60,Moderate,42.4239,-88.1844,North America
112,Denmark,Frederikssund,36,Good,1,Good,36,Good,0,Good,25,Good,55.8333,12.0666,Europe
113,United States,Friendly,41,Good,1,Good,30,Good,8,Good,41,Good,38.7601,-76.9642,North America
114,Germany,Fuldatal,44,Good,1,Good,28,Good,2,Good,44,Good,51.3484,9.5256,Europe
115,Japan,Furano,29,Good,1,Good,26,Good,1,Good,29,Good,43.342,142.3832,Asia
116,China,Fuzhou,168,Unhealthy,3,Good,168,Unhealthy,5,Good,99,Moderate,27.9814,116.3577,Asia
117,United Kingdom,Galashiels,25,Good,1,Good,25,Good,3,Good,23,Good,55.6194,-2.8033,Europe
118,Germany,Gangelt,41,Good,1,Good,26,Good,4,Good,41,Good,50.9831,6.0,Europe
119,Germany,Garbsen,36,Good,0,Good,33,Good,1,Good,36,Good,52.4183,9.5981,Europe
120,Cameroon,Garoua,59,Moderate,2,Good,12,Good,0,Good,59,Moderate,9.3,13.4,Africa
121,Netherlands,Geertruidenberg,35,Good,0,Good,33,Good,2,Good,35,Good,51.7,4.8586,Europe
122,Australia,Geraldton,29,Good,0,Good,29,Good,0,Good,13,Good,-28.7744,114.6089,Oceania
123,Germany,Germersheim,51,Moderate,1,Good,29,Good,3,Good,51,Moderate,49.2167,8.3667,Europe
124,Colombia,Girardot,103,Unhealthy for Sensitive Groups,4,Good,9,Good,6,Good,103,Unhealthy for Sensitive Groups,4.305,-74.8017,South America
125,United Kingdom,Golborne,35,Good,1,Good,30,Good,4,Good,35,Good,53.4758,-2.5943,Europe
126,Portugal,Gondomar,27,Good,0,Good,27,Good,2,Good,21,Good,41.15,-8.5333,Europe
127,India,Govindgarh,307,Hazardous,1,Good,45,Good,0,Good,307,Hazardous,24.3785,81.2964,Asia
128,United States,Hoffman Estates,61,Moderate,2,Good,26,Good,16,Good,61,Moderate,42.064,-88.1468,North America
129,United States,Holly Springs,42,Good,1,Good,42,Good,2,Good,37,Good,35.6526,-78.8399,North America
130,Germany,Holzminden,42,Good,0,Good,32,Good,1,Good,42,Good,51.8297,9.4483,Europe
131,Ethiopia,Huruta,102,Unhealthy for Sensitive Groups,1,Good,23,Good,0,Good,102,Unhealthy for Sensitive Groups,8.15,39.35,Africa
132,Italy,Iglesias,64,Moderate,1,Good,53,Moderate,1,Good,64,Moderate,39.3167,8.5333,Europe
133,Japan,Iizuka,45,Good,1,Good,45,Good,0,Good,38,Good,33.65,130.6833,Asia
134,Japan,Suzu,69,Moderate,1,Good,69,Moderate,1,Good,60,Moderate,37.4363,137.2605,Asia
135,Hungary,Szeged,50,Good,1,Good,41,Good,1,Good,50,Good,46.255,20.145,Europe
136,Iran,Tafresh,125,Unhealthy for Sensitive Groups,2,Good,125,Unhealthy for Sensitive Groups,1,Good,82,Moderate,34.6919,50.0131,Asia
137,Philippines,Tagaytay,41,Good,1,Good,25,Good,1,Good,41,Good,14.1,120.9333,Asia
138,Japan,Tajimi,52,Moderate,1,Good,34,Good,3,Good,52,Moderate,35.3328,137.1316,Asia
139,Japan,Takahagi,47,Good,1,Good,47,Good,1,Good,44,Good,36.7192,140.7167,Asia
140,Japan,Takahashi,36,Good,1,Good,36,Good,3,Good,34,Good,34.7914,133.6164,Asia
141,Philippines,Talacogon,37,Good,1,Good,19,Good,0,Good,37,Good,8.4488,125.7869,Asia
142,Russia,Taldom,46,Good,1,Good,27,Good,1,Good,46,Good,56.7333,37.5333,Asia
143,United States,Tamiami,64,Moderate,1,Good,18,Good,12,Good,64,Moderate,25.7556,-80.4016,North America
144,Israel,Tamra,92,Moderate,2,Good,52,Moderate,8,Good,92,Moderate,32.8536,35.1978,Asia
145,Philippines,Tantangan,35,Good,1,Good,20,Good,0,Good,35,Good,6.6167,124.75,Asia
146,Indonesia,Tarogong,88,Moderate,2,Good,53,Moderate,1,Good,88,Moderate,-7.215,107.8856,Asia
147,Turkey,Tatvan,45,Good,0,Good,45,Good,0,Good,43,Good,38.5022,42.2814,Europe
148,United Kingdom,Yeovil,58,Moderate,1,Good,24,Good,7,Good,58,Moderate,50.9452,-2.637,Europe
149,China,Yuanping,143,Unhealthy for Sensitive Groups,2,Good,35,Good,5,Good,143,Unhealthy for Sensitive Groups,38.7299,112.7134,Asia
150,China,Yuncheng,187,Unhealthy,2,Good,36,Good,8,Good,187,Unhealthy,35.0304,110.998,Asia
151,Belgium,Zaventem,58,Moderate,1,Good,29,Good,6,Good,58,Moderate,50.8833,4.4667,Europe
152,Belgium,Zemst,65,Moderate,1,Good,27,Good,8,Good,65,Moderate,50.9722,4.4222,Europe
153,China,Zhaozhou,73,Moderate,2,Good,66,Moderate,0,Good,73,Moderate,37.7527,114.7775,Asia
154,China,Zhongshan,98,Moderate,3,Good,33,Good,9,Good,98,Moderate,22.5333,113.35,Asia
155,China,Zhuji,156,Unhealthy,4,Good,45,Good,10,Good,156,Unhealthy,29.7169,120.2314,Asia
156,Mexico,Zinacantepec,163,Unhealthy,4,Good,8,Good,18,Good,163,Unhealthy,19.2833,-99.7333,North America
157,Russia,Zmeinogorsk,35,Good,1,Good,35,Good,0,Good,21,Good,51.1667,82.2,Asia
158,Italy,Abbiategrasso,69,Moderate,1,Good,37,Good,4,Good,69,Moderate,45.4,8.9167,Europe
159,Ivory Coast,Abidjan,105,Unhealthy for Sensitive Groups,4,Good,15,Good,4,Good,105,Unhealthy for Sensitive Groups,5.3167,-4.0333,Africa
160,United States,Acworth,64,Moderate,2,Good,37,Good,8,Good,64,Moderate,34.0566,-84.6716,North America
161,United States,Adelphi,54,Moderate,1,Good,32,Good,5,Good,54,Moderate,39.0017,-76.9649,North America
162,United States,Alabaster,80,Moderate,1,Good,18,Good,10,Good,80,Moderate,33.2198,-86.8225,North America
163,Russia,Alagir,50,Good,1,Good,36,Good,1,Good,50,Good,43.0333,44.2333,Asia
164,Belgium,Alken,35,Good,1,Good,25,Good,3,Good,35,Good,50.8761,5.3078,Europe
165,Canada,Alma,55,Moderate,1,Good,27,Good,0,Good,55,Moderate,48.55,-71.65,North America
166,Papua New Guinea,Alotau,28,Good,0,Good,28,Good,0,Good,13,Good,-10.3167,150.4333,Oceania
167,Madagascar,Ambovombe,26,Good,0,Good,26,Good,0,Good,20,Good,-25.1764,46.0833,Africa
168,China,Anqiu,107,Unhealthy for Sensitive Groups,2,Good,107,Unhealthy for Sensitive Groups,5,Good,86,Moderate,36.3619,119.1072,Asia
169,Madagascar,Antalaha,22,Good,0,Good,22,Good,0,Good,20,Good,-14.8833,50.25,Africa
170,United States,Antioch,76,Moderate,3,Good,7,Good,25,Good,76,Moderate,37.9787,-121.796,North America
171,Ghana,Apam,104,Unhealthy for Sensitive Groups,2,Good,14,Good,1,Good,104,Unhealthy for Sensitive Groups,5.2789,-0.7397,Africa
172,Russia,Arkadak,28,Good,1,Good,28,Good,1,Good,15,Good,51.9333,43.5,Asia
173,Russia,Arsk,28,Good,1,Good,28,Good,1,Good,19,Good,56.1,49.8833,Asia
174,Armenia,Ashtarak,39,Good,1,Good,29,Good,1,Good,39,Good,40.2975,44.3617,Europe
175,Guatemala,Atescatempa,104,Unhealthy for Sensitive Groups,3,Good,5,Good,10,Good,104,Unhealthy for Sensitive Groups,14.175,-89.7417,North America
176,Italy,Atri,57,Moderate,1,Good,40,Good,3,Good,57,Moderate,42.5833,13.9833,Europe
177,United Kingdom,Ayr,29,Good,1,Good,29,Good,2,Good,20,Good,55.458,-4.629,Europe
178,Netherlands,Baarn,34,Good,0,Good,34,Good,1,Good,26,Good,52.2167,5.2833,Europe
179,Germany,Bad Langensalza,32,Good,0,Good,30,Good,1,Good,32,Good,51.1081,10.6467,Europe
180,Pakistan,Bahawalnagar,500,Hazardous,1,Good,38,Good,1,Good,466,Hazardous,29.9928,73.2536,Asia
181,Thailand,Ban Phai,52,Moderate,0,Good,28,Good,0,Good,52,Moderate,16.073,102.7362,Asia
182,Philippines,Bangued,27,Good,0,Good,23,Good,0,Good,27,Good,17.5965,120.6179,Asia
183,Germany,Bargteheide,38,Good,0,Good,28,Good,2,Good,38,Good,53.7167,10.2667,Europe
184,United States,Bartlesville,56,Moderate,1,Good,23,Good,6,Good,56,Moderate,36.7365,-95.9456,North America
185,Pakistan,Bat Khela,117,Unhealthy for Sensitive Groups,1,Good,117,Unhealthy for Sensitive Groups,1,Good,78,Moderate,34.62,71.97,Asia
186,Malaysia,Batu Gajah,92,Moderate,2,Good,57,Moderate,1,Good,92,Moderate,4.4667,101.05,Asia
187,Italy,Castel Goffredo,124,Unhealthy for Sensitive Groups,2,Good,32,Good,7,Good,124,Unhealthy for Sensitive Groups,45.2981,10.475,Europe
188,Italy,Catanzaro,68,Moderate,2,Good,68,Moderate,6,Good,57,Moderate,38.9,16.6,Europe
189,Philippines,Catbalogan,68,Moderate,1,Good,26,Good,0,Good,68,Moderate,11.7833,124.8833,Asia
190,Ecuador,Cayambe,39,Good,1,Good,4,Good,2,Good,39,Good,0.0439,-78.1561,South America
191,Italy,Cesenatico,38,Good,1,Good,36,Good,5,Good,38,Good,44.2,12.3944,Europe
192,Argentina,Chacabuco,17,Good,0,Good,17,Good,1,Good,17,Good,-34.6333,-60.4667,South America
193,Peru,Chachapoyas,21,Good,0,Good,4,Good,0,Good,21,Good,-6.2167,-77.85,South America
194,China,Chaoyang,151,Unhealthy,3,Good,119,Unhealthy for Sensitive Groups,1,Good,151,Unhealthy,41.5757,120.4486,Asia
195,Russia,Cherepanovo,38,Good,1,Good,38,Good,0,Good,35,Good,54.2333,83.3667,Asia
196,Russia,Cherkessk,49,Good,1,Good,40,Good,0,Good,49,Good,44.2222,42.0575,Asia
197,Mexico,Chilpancingo,72,Moderate,2,Good,4,Good,5,Good,72,Moderate,17.55,-99.5,North America
198,United States,Cimarron Hills,73,Moderate,1,Good,32,Good,2,Good,73,Moderate,38.8597,-104.6995,North America
199,Brazil,Coari,46,Good,1,Good,2,Good,0,Good,46,Good,-4.085,-63.1408,South America
200,United Kingdom,Coatbridge,35,Good,1,Good,12,Good,9,Good,35,Good,55.8625,-4.0266,Europe
201,Ireland,Cobh,24,Good,0,Good,24,Good,1,Good,16,Good,51.851,-8.2967,Europe
202,Brazil,Colatina,45,Good,1,Good,14,Good,2,Good,45,Good,-19.5389,-40.6308,South America
203,Dominican Republic,Comendador,65,Moderate,1,Good,12,Good,6,Good,65,Moderate,18.8833,-71.7,North America
204,Italy,Como,112,Unhealthy for Sensitive Groups,1,Good,34,Good,4,Good,112,Unhealthy for Sensitive Groups,45.8103,9.0861,Europe
205,Brazil,Conde,19,Good,0,Good,19,Good,0,Good,11,Good,-11.8139,-37.6108,South America
206,United Kingdom,Consett,31,Good,0,Good,31,Good,2,Good,22,Good,54.85,-1.83,Europe
207,United States,Cooper City,152,Unhealthy,4,Good,4,Good,19,Good,152,Unhealthy,26.0463,-80.2862,North America
208,United States,Copperas Cove,31,Good,1,Good,21,Good,1,Good,31,Good,31.1192,-97.914,North America
209,Argentina,Corrientes,13,Good,1,Good,12,Good,0,Good,13,Good,-27.4833,-58.8167,South America
210,Italy,Crevalcore,103,Unhealthy for Sensitive Groups,2,Good,28,Good,9,Good,103,Unhealthy for Sensitive Groups,44.7167,11.15,Europe
211,Azerbaijan,Culfa,52,Moderate,1,Good,35,Good,0,Good,52,Moderate,38.9558,45.6308,Europe
212,Spain,Culleredo,30,Good,0,Good,30,Good,2,Good,13,Good,43.2883,-8.3894,Europe
213,India,Cuncolim,73,Moderate,0,Good,25,Good,0,Good,73,Moderate,15.1773,73.9939,Asia
214,Brazil,Curvelo,42,Good,1,Good,2,Good,4,Good,42,Good,-18.7558,-44.4308,South America
215,Germany,Cuxhaven,35,Good,0,Good,35,Good,0,Good,30,Good,53.8611,8.6944,Europe
216,United States,Cypress Lake,46,Good,1,Good,25,Good,5,Good,46,Good,26.5392,-81.8999,North America
217,Guinea,Dalaba,63,Moderate,2,Good,13,Good,0,Good,63,Moderate,10.656,-12.272,Africa
218,France,Beaune,39,Good,1,Good,26,Good,1,Good,39,Good,47.025,4.8397,Europe
219,United States,Bedford,56,Moderate,1,Good,18,Good,6,Good,56,Moderate,52.135,-0.47,North America
220,Ghana,Begoro,105,Unhealthy for Sensitive Groups,2,Good,13,Good,2,Good,105,Unhealthy for Sensitive Groups,6.3833,-0.3833,Africa
221,China,Beipiao,93,Moderate,2,Good,90,Moderate,1,Good,93,Moderate,41.802,120.7621,Asia
222,Brazil,Bela Cruz,45,Good,0,Good,22,Good,0,Good,45,Good,-3.0508,-40.1678,South America
223,Bolivia,Bermejo,54,Moderate,1,Good,8,Good,1,Good,54,Moderate,-22.7322,-64.3425,South America
224,Germany,Bernburg,36,Good,0,Good,29,Good,2,Good,36,Good,51.8,11.7333,Europe
225,United States,Berwick,50,Good,1,Good,35,Good,5,Good,50,Good,41.0555,-76.2492,North America
226,India,Betma,153,Unhealthy,1,Good,34,Good,0,Good,153,Unhealthy,22.68,75.62,Asia
227,United States,Beverly,48,Good,1,Good,36,Good,5,Good,48,Good,42.5681,-70.8627,North America
228,Russia,Bezhetsk,24,Good,0,Good,24,Good,0,Good,24,Good,57.7667,36.7,Asia
229,Pakistan,Bhalwal,179,Unhealthy,3,Good,179,Unhealthy,2,Good,166,Unhealthy,32.2656,72.8994,Asia
230,India,Bhiwandi,151,Unhealthy,1,Good,26,Good,1,Good,151,Unhealthy,19.2967,73.0631,Asia
231,Indonesia,Binjai,92,Moderate,2,Good,45,Good,0,Good,92,Moderate,3.5986,98.4803,Asia
232,Russia,Baksan,48,Good,1,Good,39,Good,1,Good,48,Good,43.6825,43.5339,Asia
233,Colombia,Baranoa,104,Unhealthy for Sensitive Groups,1,Good,16,Good,2,Good,104,Unhealthy for Sensitive Groups,10.8,-74.9167,South America
234,Philippines,Baras,51,Moderate,1,Good,27,Good,1,Good,51,Moderate,14.5167,121.2667,Asia
235,Thailand,Nong Bua,38,Good,0,Good,20,Good,0,Good,38,Good,15.8647,100.5858,Asia
236,Netherlands,Noordwijkerhout,41,Good,1,Good,27,Good,5,Good,41,Good,52.2667,4.5,Europe
237,United States,Northbridge,47,Good,1,Good,46,Good,2,Good,47,Good,42.13,-71.6547,North America
238,United Kingdom,Norwich,29,Good,0,Good,29,Good,3,Good,18,Good,52.6286,1.2928,Europe
239,Netherlands,Nuenen,37,Good,1,Good,32,Good,3,Good,37,Good,51.4733,5.5467,Europe
240,Chile,Nueva Imperial,61,Moderate,2,Good,2,Good,9,Good,61,Moderate,-38.7433,-72.95,South America
241,Mexico,Nuevo Casas Grandes,46,Good,1,Good,17,Good,2,Good,46,Good,30.4167,-107.9167,North America
242,United States,Oak Lawn,79,Moderate,2,Good,13,Good,27,Good,79,Moderate,41.7139,-87.7528,North America
243,United States,Oakdale,53,Moderate,1,Good,24,Good,9,Good,53,Moderate,44.9876,-92.9641,North America
244,Japan,Odawara,39,Good,1,Good,38,Good,2,Good,39,Good,35.25,139.15,Asia
245,Macedonia,Ohrid,42,Good,1,Good,41,Good,0,Good,42,Good,41.1169,20.8019,Europe
246,Poland,Olecko,47,Good,1,Good,36,Good,0,Good,47,Good,54.0333,22.5,Europe
247,Germany,Olfen,32,Good,1,Good,27,Good,4,Good,32,Good,51.7167,7.3833,Europe
248,Brazil,Olindina,25,Good,0,Good,6,Good,1,Good,25,Good,-11.3669,-38.3328,South America
249,United States,Orem,73,Moderate,2,Good,26,Good,7,Good,73,Moderate,40.2981,-111.6994,North America
250,United States,Orinda,52,Moderate,1,Good,22,Good,11,Good,52,Moderate,37.8808,-122.179,North America
251,Guatemala,Ostuncalco,94,Moderate,3,Good,9,Good,11,Good,94,Moderate,14.8693,-91.6211,North America
252,Nigeria,Oyo,80,Moderate,2,Good,22,Good,1,Good,80,Moderate,7.85,3.933,Africa
253,Italy,Pachino,48,Good,1,Good,45,Good,0,Good,48,Good,36.7167,15.1,Europe
254,India,Padra,156,Unhealthy,1,Good,33,Good,0,Good,156,Unhealthy,22.23,73.08,Asia
255,France,Paita,27,Good,0,Good,27,Good,0,Good,10,Good,-5.0911,-81.1064,Europe
256,Philippines,Palo,55,Moderate,1,Good,20,Good,0,Good,55,Moderate,11.1583,124.9917,Asia
257,China,Panshi,76,Moderate,3,Good,32,Good,2,Good,76,Moderate,42.9392,126.0561,Asia
258,Brazil,Paragominas,36,Good,1,Good,2,Good,0,Good,36,Good,-2.9958,-47.3528,South America
259,Peru,Paramonga,41,Good,1,Good,18,Good,1,Good,41,Good,-10.6744,-77.8186,South America
260,United States,Parkville,56,Moderate,1,Good,44,Good,4,Good,56,Moderate,39.3832,-76.5519,North America
261,United States,Pasadena,58,Moderate,1,Good,43,Good,5,Good,58,Moderate,29.6575,-95.1498,North America
262,United States,Pataskala,45,Good,1,Good,32,Good,7,Good,45,Good,40.011,-82.7155,North America
263,Kazakhstan,Pavlodar,50,Good,1,Good,41,Good,0,Good,50,Good,52.3,76.95,Asia
264,United States,Pelham,46,Good,1,Good,46,Good,2,Good,31,Good,40.9,-73.8063,North America
265,Mexico,Perote,77,Moderate,3,Good,7,Good,8,Good,77,Moderate,19.562,-97.242,North America
266,Serbia,Petrovaradin,63,Moderate,1,Good,33,Good,1,Good,63,Moderate,45.25,19.8667,Europe
267,Thailand,Phatthalung,59,Moderate,1,Good,27,Good,0,Good,59,Moderate,7.5,100.0,Asia
268,Thailand,Phetchaburi,35,Good,0,Good,17,Good,0,Good,35,Good,13.1119,99.9458,Asia
269,India,Phillaur,444,Hazardous,2,Good,111,Unhealthy for Sensitive Groups,1,Good,391,Hazardous,31.03,75.78,Asia
270,Egypt,Rosetta,60,Moderate,2,Good,60,Moderate,3,Good,55,Moderate,31.4044,30.4164,Africa
271,Italy,Rossano,48,Good,1,Good,48,Good,0,Good,12,Good,39.5667,16.6333,Europe
272,Russia,Rostov,32,Good,1,Good,32,Good,0,Good,26,Good,47.2333,39.7,Asia
273,United Kingdom,Royton,56,Moderate,0,Good,32,Good,1,Good,56,Moderate,53.566,-2.121,Europe
274,Germany,Rudolstadt,32,Good,1,Good,32,Good,1,Good,30,Good,50.7169,11.3275,Europe
275,Czechia,Rumburk,29,Good,0,Good,29,Good,2,Good,29,Good,50.9516,14.5571,Europe
276,Malawi,Rumphi,28,Good,0,Good,19,Good,0,Good,28,Good,-11.0167,33.8667,Africa
277,Brazil,Ruy Barbosa,18,Good,0,Good,8,Good,0,Good,18,Good,-12.2839,-40.4939,South America
278,Japan,Sakurai,40,Good,1,Good,40,Good,2,Good,34,Good,34.5167,135.85,Asia
279,United Kingdom,Salford,58,Moderate,0,Good,32,Good,1,Good,58,Moderate,53.483,-2.2931,Europe
280,Brazil,Salvador,30,Good,0,Good,16,Good,1,Good,30,Good,-12.9747,-38.4767,South America
281,Turkey,Samsun,36,Good,1,Good,36,Good,0,Good,30,Good,41.2903,36.3336,Europe
282,Indonesia,Prabumulih,49,Good,1,Good,30,Good,0,Good,49,Good,-3.4328,104.2356,Asia
283,Brazil,Presidente Prudente,32,Good,1,Good,14,Good,1,Good,32,Good,-22.1256,-51.3889,South America
284,United States,Prichard,28,Good,1,Good,22,Good,4,Good,28,Good,30.7735,-88.1301,North America
285,Canada,Prince George,21,Good,1,Good,21,Good,1,Good,13,Good,53.9169,-122.7494,North America
286,Peru,Pucallpa,30,Good,1,Good,1,Good,0,Good,30,Good,-8.3833,-74.55,South America
287,Spain,Puertollano,32,Good,1,Good,30,Good,1,Good,32,Good,38.6833,-4.1167,Europe
288,Israel,Qiryat Gat,80,Moderate,1,Good,62,Moderate,4,Good,80,Moderate,31.6061,34.7717,Asia
289,Chile,Quillota,182,Unhealthy,14,Good,1,Good,23,Good,182,Unhealthy,-32.8667,-71.25,South America
290,India,Rafiganj,356,Hazardous,1,Good,60,Moderate,0,Good,284,Very Unhealthy,24.82,84.65,Asia
291,United States,Rahway,62,Moderate,1,Good,44,Good,5,Good,62,Moderate,40.6077,-74.2807,North America
292,India,Phulpur,226,Very Unhealthy,1,Good,48,Good,1,Good,226,Very Unhealthy,24.955,90.3573,Asia
293,Brazil,Picos,16,Good,0,Good,12,Good,0,Good,16,Good,15.083,-23.632,South America
294,Germany,Pirmasens,30,Good,1,Good,27,Good,2,Good,30,Good,49.2,7.6,Europe
295,United States,Plum,55,Moderate,2,Good,26,Good,12,Good,55,Moderate,40.5024,-79.7495,North America
296,Italy,Policoro,46,Good,1,Good,46,Good,0,Good,14,Good,40.2,16.6667,Europe
297,Sierra Leone,Port Loko,48,Good,1,Good,16,Good,0,Good,48,Good,8.7667,-12.7875,Africa
298,United States,Poughkeepsie,43,Good,1,Good,43,Good,2,Good,39,Good,41.695,-73.9211,North America
299,United States,Randallstown,52,Moderate,1,Good,44,Good,4,Good,52,Moderate,39.3723,-76.8024,North America
300,Thailand,Ranong,36,Good,0,Good,16,Good,0,Good,36,Good,9.9619,98.6389,Asia
301,Germany,Rathenow,39,Good,0,Good,39,Good,0,Good,23,Good,52.6,12.3333,Europe
302,Russia,Reutov,58,Moderate,1,Good,25,Good,9,Good,58,Moderate,55.7622,37.8567,Asia
303,United States,Richardson,56,Moderate,1,Good,21,Good,6,Good,56,Moderate,32.9716,-96.7093,North America
304,United States,Richmond,76,Moderate,2,Good,15,Good,17,Good,76,Moderate,37.5295,-77.4756,North America
305,Peru,Rioja,25,Good,1,Good,3,Good,0,Good,25,Good,-6.05,-77.1417,South America
306,France,Riom,40,Good,1,Good,30,Good,1,Good,40,Good,45.8936,3.1125,Europe
307,Italy,Rocca Priora,47,Good,1,Good,47,Good,2,Good,27,Good,41.7833,12.7667,Europe
308,France,Rodez,42,Good,1,Good,31,Good,1,Good,42,Good,44.3506,2.575,Europe
309,Philippines,Romblon,50,Good,1,Good,23,Good,0,Good,50,Good,12.55,122.28,Asia
310,United States,Daly City,62,Moderate,1,Good,18,Good,13,Good,62,Moderate,37.6862,-122.4685,North America
311,Brazil,Delmiro Gouveia,25,Good,0,Good,9,Good,1,Good,25,Good,-9.3858,-37.9958,South America
312,Russia,Desnogorsk,34,Good,1,Good,34,Good,0,Good,10,Good,54.15,33.2833,Asia
313,Turkey,Develi,46,Good,1,Good,29,Good,0,Good,46,Good,38.3886,35.4925,Europe
314,Ukraine,Dniprorudne,39,Good,1,Good,39,Good,0,Good,12,Good,47.3907,35.0027,Europe
315,Benin,Dogbo,101,Unhealthy for Sensitive Groups,3,Good,18,Good,2,Good,101,Unhealthy for Sensitive Groups,6.8167,1.7833,Africa
316,United States,Dumas,60,Moderate,1,Good,22,Good,3,Good,60,Moderate,35.8613,-101.9642,North America
317,United States,Dyersburg,93,Moderate,1,Good,24,Good,5,Good,93,Moderate,36.0465,-89.3777,North America
318,United States,Eatontown,28,Good,1,Good,28,Good,8,Good,25,Good,40.2913,-74.0558,North America
319,United States,El Campo,39,Good,1,Good,22,Good,1,Good,39,Good,29.2,-96.2723,North America
320,United States,Ellicott City,44,Good,1,Good,27,Good,10,Good,44,Good,39.2774,-76.8345,North America
321,Japan,Ena,42,Good,1,Good,42,Good,0,Good,12,Good,35.4492,137.4128,Asia
322,Italy,Giussano,62,Moderate,1,Good,32,Good,4,Good,62,Moderate,45.7,9.2167,Europe
323,United Kingdom,Glenrothes,35,Good,1,Good,22,Good,6,Good,35,Good,56.198,-3.178,Europe
324,United Kingdom,Glossop,27,Good,1,Good,25,Good,3,Good,27,Good,53.443,-1.949,Europe
325,Namibia,Gobabis,19,Good,0,Good,18,Good,0,Good,19,Good,-22.4333,18.9667,Africa
326,India,Gobindpur,175,Unhealthy,1,Good,51,Moderate,1,Good,175,Unhealthy,24.782,85.6943,Asia
327,Spain,Godella,33,Good,1,Good,33,Good,1,Good,28,Good,39.52,-0.4114,Europe
328,Brazil,Goiatuba,37,Good,1,Good,3,Good,3,Good,37,Good,-18.0128,-49.3569,South America
329,Netherlands,Goirle,30,Good,0,Good,30,Good,2,Good,27,Good,51.5167,5.0667,Europe
330,United States,Golden Glades,61,Moderate,1,Good,10,Good,16,Good,61,Moderate,25.9129,-80.2013,North America
331,Albania,Gramsh,68,Moderate,1,Good,39,Good,1,Good,68,Moderate,40.8667,20.1833,Europe
332,United States,Granger,57,Moderate,2,Good,21,Good,11,Good,57,Moderate,41.7374,-86.1348,North America
333,United States,Grants Pass,29,Good,1,Good,29,Good,2,Good,27,Good,42.4333,-123.3317,North America
334,Mexico,Guasave,35,Good,1,Good,22,Good,1,Good,35,Good,25.5744,-108.4706,North America
335,Germany,Guben,37,Good,1,Good,21,Good,4,Good,37,Good,51.9533,14.7167,Europe
336,Cameroon,Guider,76,Moderate,3,Good,8,Good,1,Good,76,Moderate,9.9342,13.9486,Africa
337,China,Guilin,90,Moderate,3,Good,46,Good,3,Good,90,Moderate,25.2819,110.2864,Asia
338,France,Guipavas,34,Good,1,Good,26,Good,9,Good,34,Good,48.4336,-4.4008,Europe
339,United States,Fort Walton Beach,65,Moderate,1,Good,30,Good,1,Good,65,Moderate,30.4255,-86.6222,North America
340,France,Fosses,29,Good,0,Good,28,Good,2,Good,29,Good,49.0981,2.5067,Europe
341,United States,Fountain Hills,37,Good,1,Good,27,Good,8,Good,37,Good,33.6073,-111.7398,North America
342,United States,Fountain,72,Moderate,1,Good,29,Good,3,Good,72,Moderate,38.6886,-104.6829,North America
343,Brazil,Francisco Morato,169,Unhealthy,7,Good,0,Good,21,Good,169,Unhealthy,-23.2817,-46.7425,South America
344,Germany,Freiberg,36,Good,1,Good,25,Good,3,Good,36,Good,50.9119,13.3428,Europe
345,United States,Front Royal,46,Good,1,Good,37,Good,2,Good,46,Good,38.926,-78.1838,North America
346,Germany,Gaggenau,29,Good,0,Good,29,Good,2,Good,26,Good,48.8039,8.3194,Europe
347,Israel,Gan Yavne,77,Moderate,1,Good,43,Good,6,Good,77,Moderate,31.7886,34.7053,Asia
348,Italy,Gela,53,Moderate,1,Good,38,Good,2,Good,53,Moderate,37.0667,14.25,Europe
349,Netherlands,Gennep,30,Good,0,Good,25,Good,3,Good,30,Good,51.7,5.9667,Europe
350,Germany,Genthin,31,Good,0,Good,30,Good,1,Good,31,Good,52.4,12.1667,Europe
351,Guyana,Georgetown,27,Good,0,Good,19,Good,0,Good,27,Good,6.8058,-58.1508,South America
352,Germany,Gera,30,Good,0,Good,28,Good,2,Good,30,Good,50.8806,12.0833,Europe
353,United States,Lake Jackson,25,Good,0,Good,24,Good,2,Good,25,Good,29.0516,-95.4521,North America
354,United States,Lakeside,57,Moderate,2,Good,22,Good,14,Good,57,Moderate,30.1356,-81.7674,North America
355,Thailand,Lam Luk Ka,66,Moderate,1,Good,28,Good,1,Good,66,Moderate,13.9297,100.7375,Asia
356,Netherlands,Leusden,33,Good,0,Good,33,Good,1,Good,26,Good,52.1333,5.4333,Europe
357,United Kingdom,Lewes,37,Good,1,Good,12,Good,13,Good,37,Good,50.8747,0.0117,Europe
358,Philippines,Lianga,50,Good,1,Good,20,Good,0,Good,50,Good,8.633,126.0932,Asia
359,France,Libourne,46,Good,1,Good,26,Good,2,Good,46,Good,44.92,-0.24,Europe
360,Czechia,Litovel,49,Good,1,Good,24,Good,2,Good,49,Good,49.7012,17.0762,Europe
361,Belgium,Lokeren,31,Good,0,Good,31,Good,2,Good,31,Good,51.1,3.9833,Europe
362,Belgium,Londerzeel,34,Good,0,Good,29,Good,3,Good,34,Good,51.0,4.3,Europe
363,Senegal,Louga,176,Unhealthy,2,Good,21,Good,3,Good,176,Unhealthy,15.6167,-16.2167,Africa
364,Poland,Lubin,35,Good,1,Good,20,Good,3,Good,35,Good,51.4,16.2,Europe
365,Poland,Lublin,32,Good,1,Good,32,Good,1,Good,28,Good,51.25,22.5667,Europe
366,Philippines,Lucena,32,Good,1,Good,29,Good,0,Good,32,Good,13.9333,121.6167,Asia
367,Lesotho,Mafeteng,117,Unhealthy for Sensitive Groups,4,Good,14,Good,7,Good,117,Unhealthy for Sensitive Groups,-29.8167,27.25,Africa
368,United States,Magnolia,56,Moderate,1,Good,25,Good,2,Good,56,Moderate,33.2775,-93.2261,North America
369,India,Maihar,171,Unhealthy,1,Good,36,Good,0,Good,171,Unhealthy,24.262,80.761,Asia
370,United States,Maitland,53,Moderate,1,Good,18,Good,14,Good,53,Moderate,28.6295,-81.3718,North America
371,France,Malakoff,40,Good,1,Good,26,Good,3,Good,40,Good,48.8169,2.2944,Europe
372,Benin,Malanville,34,Good,1,Good,18,Good,1,Good,34,Good,11.8667,3.3833,Africa
373,Italy,Malnate,69,Moderate,1,Good,22,Good,6,Good,69,Moderate,45.8,8.8833,Europe
374,Congo,Manono,74,Moderate,2,Good,23,Good,1,Good,74,Moderate,-7.2947,27.4545,Africa
375,Venezuela,Maracaibo,118,Unhealthy for Sensitive Groups,1,Good,17,Good,4,Good,118,Unhealthy for Sensitive Groups,10.6333,-71.6333,South America
376,Germany,Hagen,30,Good,0,Good,30,Good,1,Good,25,Good,51.3667,7.4833,Europe
377,France,Halluin,35,Good,0,Good,28,Good,2,Good,35,Good,50.7836,3.1256,Europe
378,Germany,Hamburg,34,Good,0,Good,28,Good,2,Good,34,Good,53.55,10.0,Europe
379,United States,Hanahan,73,Moderate,2,Good,35,Good,8,Good,73,Moderate,32.9302,-80.0027,North America
380,Bulgaria,Harmanli,40,Good,1,Good,40,Good,1,Good,24,Good,41.9333,25.9,Europe
381,Pakistan,Harunabad,500,Hazardous,1,Good,43,Good,0,Good,443,Hazardous,29.613,73.1409,Asia
382,Germany,Hattingen,28,Good,0,Good,27,Good,2,Good,28,Good,51.3992,7.1858,Europe
383,United States,Hauppauge,52,Moderate,1,Good,27,Good,12,Good,52,Moderate,40.8211,-73.2109,North America
384,United States,Hayward,70,Moderate,2,Good,20,Good,20,Good,70,Moderate,37.6328,-122.0766,North America
385,Finland,Heinola,33,Good,0,Good,33,Good,0,Good,5,Good,61.2,26.0333,Europe
386,Japan,Hekinan,59,Moderate,1,Good,59,Moderate,1,Good,23,Good,34.8847,136.9934,Asia
387,Germany,Hemsbach,30,Good,0,Good,30,Good,1,Good,24,Good,49.5903,8.6564,Europe
388,China,Hengyang,169,Unhealthy,4,Good,169,Unhealthy,3,Good,150,Unhealthy,26.8968,112.5857,Asia
389,United States,Hoboken,61,Moderate,1,Good,27,Good,11,Good,61,Moderate,40.7452,-74.0281,North America
390,Somalia,Hobyo,58,Moderate,0,Good,21,Good,0,Good,58,Moderate,5.3514,48.5256,Africa
391,Solomon Islands,Honiara,18,Good,0,Good,18,Good,0,Good,6,Good,-9.4319,159.9556,Oceania
392,Paraguay,Horqueta,20,Good,0,Good,20,Good,0,Good,20,Good,-23.3442,-57.0436,South America
393,Armenia,Hrazdan,31,Good,0,Good,31,Good,0,Good,30,Good,40.5,44.7667,Europe
394,China,Hsinchu,138,Unhealthy for Sensitive Groups,3,Good,138,Unhealthy for Sensitive Groups,2,Good,112,Unhealthy for Sensitive Groups,24.8167,120.9833,Asia
395,Peru,Huaura,39,Good,1,Good,19,Good,1,Good,39,Good,-11.1,-77.6,South America
396,Zimbabwe,Hwange,44,Good,0,Good,17,Good,0,Good,44,Good,-18.3647,26.5,Africa
397,Japan,Ichihara,74,Moderate,1,Good,74,Moderate,1,Good,35,Good,35.4981,140.1154,Asia
398,India,Khed,95,Moderate,0,Good,22,Good,0,Good,95,Moderate,17.7189,73.3969,Asia
399,Russia,Khimki,40,Good,1,Good,30,Good,8,Good,40,Good,55.8892,37.445,Asia
400,Ukraine,Khotyn,75,Moderate,1,Good,37,Good,1,Good,75,Moderate,48.5078,26.486,Europe
401,Turkey,Kilis,64,Moderate,1,Good,41,Good,0,Good,64,Moderate,36.7167,37.1167,Europe
402,United States,Killeen,40,Good,0,Good,21,Good,1,Good,40,Good,31.0753,-97.7297,North America
403,Austria,Klosterneuburg,59,Moderate,1,Good,30,Good,3,Good,59,Moderate,48.3042,16.3167,Europe
404,Croatia,Knin,48,Good,1,Good,48,Good,0,Good,35,Good,44.0414,16.1986,Europe
405,Papua New Guinea,Kokopo,104,Unhealthy for Sensitive Groups,0,Good,22,Good,0,Good,104,Unhealthy for Sensitive Groups,-4.35,152.2736,Oceania
406,Russia,Kola,30,Good,1,Good,30,Good,0,Good,10,Good,22.43,87.87,Asia
407,Russia,Kotelnikovo,39,Good,1,Good,39,Good,0,Good,20,Good,47.6333,43.15,Asia
408,Chad,Koumra,59,Moderate,2,Good,6,Good,0,Good,59,Moderate,8.91,17.55,Africa
409,Russia,Krasnovishersk,29,Good,1,Good,28,Good,0,Good,29,Good,60.4167,57.1,Asia
410,Russia,Krasnyy Yar,34,Good,1,Good,34,Good,1,Good,24,Good,46.5331,48.3456,Asia
411,Germany,Kronach,36,Good,1,Good,26,Good,2,Good,36,Good,50.2411,11.3281,Europe
412,Germany,Kronberg,30,Good,0,Good,30,Good,1,Good,27,Good,50.1833,8.5,Europe
413,Russia,Kulebaki,48,Good,1,Good,33,Good,1,Good,48,Good,55.4167,42.5333,Asia
414,Japan,Kushiro,33,Good,1,Good,33,Good,0,Good,9,Good,42.9833,144.3833,Asia
415,Mexico,La Barca,37,Good,1,Good,8,Good,3,Good,37,Good,20.2833,-102.5667,North America
416,France,La Crau,60,Moderate,1,Good,30,Good,6,Good,60,Moderate,43.1497,6.0742,Europe
417,Honduras,La Entrada,55,Moderate,2,Good,5,Good,4,Good,55,Moderate,15.05,-88.7333,North America
418,United States,La Presa,58,Moderate,2,Good,14,Good,19,Good,58,Moderate,32.711,-117.0027,North America
419,Germany,Ilsede,41,Good,0,Good,28,Good,2,Good,41,Good,52.2667,10.1833,Europe
420,Brazil,Imbituba,31,Good,1,Good,15,Good,1,Good,31,Good,-28.24,-48.67,South America
421,Brazil,Imbituva,24,Good,1,Good,8,Good,0,Good,24,Good,-25.23,-50.6044,South America
422,Japan,Inagi,78,Moderate,1,Good,78,Moderate,3,Good,51,Moderate,35.6379,139.5046,Asia
423,Spain,Inca,43,Good,1,Good,43,Good,0,Good,30,Good,39.7167,2.9167,Europe
424,India,Indore,150,Unhealthy,1,Good,30,Good,0,Good,150,Unhealthy,22.7167,75.8472,Asia
425,United Kingdom,Inverurie,31,Good,1,Good,31,Good,2,Good,25,Good,57.28,-2.38,Europe
426,Japan,Ishigaki,116,Unhealthy for Sensitive Groups,2,Good,116,Unhealthy for Sensitive Groups,0,Good,64,Moderate,24.3406,124.1556,Asia
427,Spain,Jaen,36,Good,1,Good,17,Good,3,Good,36,Good,15.3392,120.9069,Europe
428,Mexico,Jilotepec,95,Moderate,2,Good,9,Good,9,Good,95,Moderate,19.9519,-99.5328,North America
429,Tanzania,Kabanga,171,Unhealthy,6,Good,10,Good,3,Good,171,Unhealthy,-2.9022,30.4986,Africa
430,Finland,Kajaani,32,Good,1,Good,32,Good,0,Good,24,Good,64.2311,27.7194,Europe
431,India,Kalavai,59,Moderate,1,Good,32,Good,0,Good,59,Moderate,12.7691,79.4196,Asia
432,Russia,Kalyazin,24,Good,1,Good,24,Good,0,Good,19,Good,57.2333,37.8833,Asia
433,Ukraine,Kalynivka,78,Moderate,1,Good,36,Good,1,Good,78,Moderate,49.4472,28.5231,Europe
434,Cambodia,Kampot,59,Moderate,1,Good,27,Good,0,Good,59,Moderate,10.6,104.1667,Asia
435,Finland,Kangasala,30,Good,1,Good,30,Good,2,Good,14,Good,61.4639,24.065,Europe
436,India,Karambakkudi,84,Moderate,1,Good,40,Good,1,Good,84,Moderate,10.4587,79.141,Asia
437,Japan,Kawaguchi,75,Moderate,1,Good,75,Moderate,1,Good,34,Good,35.8077,139.7241,Asia
438,United States,Kearns,54,Moderate,1,Good,6,Good,14,Good,54,Moderate,40.6519,-112.0095,North America
439,Belgium,Keerbergen,39,Good,1,Good,23,Good,5,Good,39,Good,51.0031,4.6311,Europe
440,United States,Kerrville,36,Good,0,Good,20,Good,1,Good,36,Good,30.0398,-99.132,North America
441,United States,Kettering,53,Moderate,1,Good,31,Good,6,Good,53,Moderate,52.3931,-0.7229,North America
442,India,Khammam,112,Unhealthy for Sensitive Groups,1,Good,29,Good,2,Good,112,Unhealthy for Sensitive Groups,17.2473,80.1514,Asia
443,India,Khandwa,130,Unhealthy for Sensitive Groups,0,Good,31,Good,0,Good,130,Unhealthy for Sensitive Groups,21.82,76.35,Asia
444,Italy,Marsciano,40,Good,1,Good,40,Good,2,Good,23,Good,42.9167,12.3333,Europe
445,France,Marseille,59,Moderate,1,Good,37,Good,6,Good,59,Moderate,43.2964,5.37,Europe
446,United States,Mashpee,29,Good,1,Good,29,Good,2,Good,17,Good,41.6178,-70.4908,North America
447,Uganda,Masindi,62,Moderate,2,Good,17,Good,0,Good,62,Moderate,1.6836,31.7222,Africa
448,Chad,Massakory,65,Moderate,2,Good,23,Good,1,Good,65,Moderate,13.0,15.7333,Africa
449,Philippines,Medellin,78,Moderate,1,Good,31,Good,0,Good,78,Moderate,11.1286,123.9622,Asia
450,Cuba,Media Luna,56,Moderate,1,Good,25,Good,1,Good,56,Moderate,20.1444,-77.4361,North America
451,Colombia,Melgar,121,Unhealthy for Sensitive Groups,4,Good,7,Good,8,Good,121,Unhealthy for Sensitive Groups,4.2039,-74.6428,South America
452,Argentina,Mercedes,14,Good,1,Good,14,Good,0,Good,3,Good,-33.25,-58.0333,South America
453,United States,Merriam,95,Moderate,1,Good,23,Good,10,Good,95,Moderate,39.0186,-94.6933,North America
454,United States,Merrill,52,Moderate,1,Good,33,Good,3,Good,52,Moderate,45.182,-89.6994,North America
455,Netherlands,Middelharnis,34,Good,0,Good,34,Good,2,Good,32,Good,51.75,4.17,Europe
456,Turkey,Midyat,72,Moderate,1,Good,42,Good,1,Good,72,Moderate,37.4167,41.3697,Europe
457,Brazil,Miguel Alves,47,Good,1,Good,7,Good,1,Good,47,Good,-4.1658,-42.895,South America
458,Uruguay,Minas,22,Good,0,Good,19,Good,0,Good,22,Good,-34.3667,-55.2333,South America
459,Brazil,Miranorte,41,Good,0,Good,11,Good,0,Good,41,Good,-9.5289,-48.59,South America
460,India,Moga,159,Unhealthy,2,Good,134,Unhealthy for Sensitive Groups,1,Good,159,Unhealthy,30.822,75.174,Asia
461,Italy,Mogliano Veneto,89,Moderate,2,Good,33,Good,5,Good,89,Moderate,45.5619,12.2364,Europe
462,France,Montauban,32,Good,1,Good,32,Good,2,Good,32,Good,44.0181,1.3558,Europe
463,Belgium,Mortsel,40,Good,1,Good,29,Good,3,Good,40,Good,51.1667,4.4667,Europe
464,United States,Moscow,30,Good,1,Good,19,Good,4,Good,30,Good,55.7558,37.6178,North America
465,India,Mudhol,73,Moderate,0,Good,24,Good,0,Good,73,Moderate,18.9667,77.9167,Asia
466,Mexico,Muna,59,Moderate,1,Good,21,Good,1,Good,59,Moderate,20.48,-89.72,North America
467,Mexico,Naranjos,92,Moderate,2,Good,34,Good,1,Good,92,Moderate,21.3472,-97.6833,North America
468,Romania,Nehoiu,52,Moderate,1,Good,40,Good,0,Good,52,Moderate,45.3531,26.305,Europe
469,Germany,Neustadt,33,Good,0,Good,33,Good,0,Good,32,Good,49.35,8.15,Europe
470,United States,New Lenox,54,Moderate,2,Good,30,Good,11,Good,54,Moderate,41.5095,-87.9703,North America
471,United Kingdom,Newburn,31,Good,0,Good,31,Good,2,Good,21,Good,54.983,-1.743,Europe
472,United Kingdom,Newbury,50,Good,1,Good,22,Good,7,Good,50,Good,51.401,-1.323,Europe
473,Moldova,Nisporeni,53,Moderate,1,Good,36,Good,1,Good,53,Moderate,47.0833,28.1833,Europe
474,Japan,Nisshin,44,Good,1,Good,44,Good,1,Good,16,Good,35.132,137.0394,Asia
475,Russia,Nizhniye Sergi,37,Good,1,Good,35,Good,0,Good,37,Good,56.6667,59.3167,Asia
476,Germany,Nohfelden,54,Moderate,1,Good,30,Good,3,Good,54,Moderate,49.5867,7.1428,Europe
477,United States,Klamath Falls,40,Good,1,Good,7,Good,6,Good,40,Good,42.2195,-121.7754,North America
478,Pakistan,Kohat,101,Unhealthy for Sensitive Groups,1,Good,62,Moderate,0,Good,101,Unhealthy for Sensitive Groups,33.5833,71.4333,Asia
479,China,Korla,160,Unhealthy,1,Good,45,Good,0,Good,160,Unhealthy,41.7259,86.1746,Asia
480,Ukraine,Korostyshiv,89,Moderate,1,Good,39,Good,0,Good,89,Moderate,50.3186,29.0592,Europe
481,Guinea,Kouroussa,56,Moderate,1,Good,13,Good,0,Good,56,Moderate,10.653,-9.892,Africa
482,United States,Littleton,74,Moderate,1,Good,8,Good,13,Good,74,Moderate,39.5915,-105.0188,North America
483,Italy,Lizzano,48,Good,1,Good,48,Good,3,Good,36,Good,40.3919,17.4483,Europe
484,Bolivia,Llallagua,12,Good,0,Good,12,Good,0,Good,11,Good,-18.4167,-66.5833,South America
485,United States,Lochearn,42,Good,1,Good,28,Good,10,Good,42,Good,39.3461,-76.7307,North America
486,Finland,Lohja,27,Good,1,Good,27,Good,4,Good,19,Good,60.25,24.0667,Europe
487,Burma (Myanmar),Loikaw,15,Good,0,Good,15,Good,0,Good,10,Good,19.6742,97.2092,Asia
488,Italy,Lonate Pozzolo,82,Moderate,1,Good,42,Good,2,Good,82,Moderate,45.6,8.75,Europe
489,Chile,Lota,67,Moderate,2,Good,10,Good,8,Good,67,Moderate,-37.0833,-73.1667,South America
490,Angola,Lubango,40,Good,1,Good,14,Good,0,Good,40,Good,-14.9167,13.5,Africa
491,Congo,Luebo,90,Moderate,4,Good,20,Good,0,Good,90,Moderate,-5.35,21.4167,Africa
492,India,Lumding,43,Good,2,Good,21,Good,0,Good,43,Good,25.75,93.17,Asia
493,India,Mahendragarh,500,Hazardous,1,Good,42,Good,0,Good,435,Hazardous,28.28,76.15,Asia
494,Turkey,Malatya,55,Moderate,1,Good,29,Good,0,Good,55,Moderate,38.3486,38.3194,Europe
495,Philippines,Manay,25,Good,0,Good,15,Good,0,Good,25,Good,7.2108,126.5328,Asia
496,Swaziland,Manzini,75,Moderate,3,Good,15,Good,1,Good,75,Moderate,-26.4833,31.3667,Africa
497,Ukraine,Krasnodon,37,Good,1,Good,37,Good,0,Good,13,Good,48.3,39.7333,Europe
498,India,Kunigal,50,Good,0,Good,21,Good,0,Good,50,Good,13.0232,77.0252,Asia
499,Spain,La Carolina,34,Good,1,Good,17,Good,3,Good,34,Good,38.2667,-3.6167,Europe
500,Spain,La Garriga,49,Good,1,Good,30,Good,5,Good,49,Good,41.6804,2.2833,Europe
501,Spain,La Llagosta,53,Moderate,1,Good,26,Good,7,Good,53,Moderate,41.5156,2.1928,Europe
502,United States,Lady Lake,72,Moderate,1,Good,7,Good,14,Good,72,Moderate,28.9241,-81.9299,North America
503,Malaysia,Lahad Datu,48,Good,1,Good,15,Good,0,Good,48,Good,5.03,118.34,Asia
504,Belgium,Lanaken,43,Good,1,Good,25,Good,4,Good,43,Good,50.8925,5.6497,Europe
505,France,Lannion,41,Good,1,Good,26,Good,4,Good,41,Good,48.7325,-3.4553,Europe
506,Italy,Lanuvio,40,Good,1,Good,40,Good,2,Good,20,Good,41.6833,12.7,Europe
507,Mexico,Las Margaritas,61,Moderate,1,Good,8,Good,4,Good,61,Moderate,16.3667,-91.7333,North America
508,Belgium,Lede,42,Good,1,Good,28,Good,4,Good,42,Good,50.9667,3.9833,Europe
509,Italy,Lentini,67,Moderate,1,Good,36,Good,3,Good,67,Moderate,37.2833,15.0,Europe
510,United States,Leominster,30,Good,1,Good,30,Good,3,Good,22,Good,42.5209,-71.7717,North America
511,Mexico,Leon,50,Good,1,Good,14,Good,3,Good,50,Good,10.7808,122.3894,North America
512,Bulgaria,Levski,52,Moderate,1,Good,36,Good,1,Good,52,Moderate,43.3667,25.1333,Europe
513,China,Liancheng,58,Moderate,1,Good,28,Good,2,Good,58,Moderate,24.0515,105.0573,Asia
514,United States,Lighthouse Point,58,Moderate,1,Good,14,Good,10,Good,58,Moderate,26.2785,-80.0891,North America
515,Malawi,Lilongwe,33,Good,0,Good,19,Good,0,Good,33,Good,-13.9833,33.7833,Africa
516,Nigeria,Kano,138,Unhealthy for Sensitive Groups,4,Good,25,Good,4,Good,138,Unhealthy for Sensitive Groups,12.0,8.5167,Africa
517,Russia,Karabash,36,Good,1,Good,36,Good,0,Good,33,Good,55.4833,60.2167,Asia
518,India,Kareli,169,Unhealthy,1,Good,36,Good,0,Good,169,Unhealthy,22.9153,79.0638,Asia
519,United States,Kaukauna,49,Good,1,Good,31,Good,6,Good,49,Good,44.2773,-88.2641,North America
520,Finland,Kerava,23,Good,1,Good,23,Good,6,Good,18,Good,60.4,25.1,Europe
521,Poland,Jawor,63,Moderate,1,Good,24,Good,3,Good,63,Moderate,51.05,16.2,Europe
522,France,Joigny,31,Good,1,Good,31,Good,1,Good,21,Good,47.9822,3.3972,Europe
523,Germany,Jork,34,Good,0,Good,34,Good,1,Good,31,Good,53.5344,9.6817,Europe
524,Zambia,Kafue,36,Good,0,Good,16,Good,0,Good,36,Good,-15.7667,28.1833,Africa
525,United States,Mountlake Terrace,49,Good,1,Good,25,Good,11,Good,49,Good,47.7921,-122.3077,North America
526,Morocco,Mrirt,59,Moderate,2,Good,16,Good,4,Good,59,Moderate,33.1667,-5.5667,Africa
527,India,Muktsar,180,Unhealthy,2,Good,151,Unhealthy,1,Good,180,Unhealthy,30.4743,74.5166,Asia
528,Ireland,Mullingar,27,Good,0,Good,27,Good,0,Good,13,Good,53.5224,-7.3378,Europe
529,Pakistan,Multan,194,Unhealthy,3,Good,176,Unhealthy,2,Good,194,Unhealthy,30.1978,71.4697,Asia
530,Ghana,Mumford,74,Moderate,2,Good,17,Good,1,Good,74,Moderate,5.2625,-0.7578,Africa
531,Japan,Murayama,35,Good,1,Good,35,Good,1,Good,13,Good,38.4833,140.3833,Asia
532,Spain,Murcia,29,Good,1,Good,29,Good,2,Good,20,Good,37.9861,-1.1303,Europe
533,India,Musiri,54,Moderate,0,Good,25,Good,0,Good,54,Moderate,10.9333,78.45,Asia
534,United States,Muskego,58,Moderate,2,Good,18,Good,21,Good,58,Moderate,42.886,-88.1291,North America
535,Netherlands,Naarden,42,Good,0,Good,35,Good,1,Good,42,Good,52.2953,5.1622,Europe
536,China,Nantong,206,Very Unhealthy,7,Good,206,Very Unhealthy,9,Good,167,Unhealthy,31.9829,120.8873,Asia
537,France,Jeumont,51,Moderate,1,Good,22,Good,5,Good,51,Moderate,50.2944,4.1014,Europe
538,India,Kalanaur,157,Unhealthy,3,Good,157,Unhealthy,1,Good,126,Unhealthy for Sensitive Groups,32.02,75.15,Asia
539,India,Lala,87,Moderate,1,Good,36,Good,0,Good,87,Moderate,7.9667,123.75,Asia
540,Thailand,Lang Suan,32,Good,0,Good,16,Good,0,Good,32,Good,9.95,99.0667,Asia
541,United States,League City,45,Good,1,Good,22,Good,5,Good,45,Good,29.4874,-95.1087,North America
542,Ukraine,Lebedyn,55,Moderate,1,Good,40,Good,1,Good,55,Moderate,50.5831,34.4823,Europe
543,United States,Lennox,114,Unhealthy for Sensitive Groups,3,Good,8,Good,37,Good,114,Unhealthy for Sensitive Groups,33.938,-118.3586,North America
544,Slovakia,Levice,50,Good,1,Good,31,Good,1,Good,50,Good,48.2164,18.6081,Europe
545,New Zealand,Levin,13,Good,0,Good,13,Good,1,Good,12,Good,-40.6219,175.2867,Oceania
546,Germany,Limburg,33,Good,1,Good,33,Good,2,Good,30,Good,50.3833,8.0667,Europe
547,Sweden,Lindome,38,Good,0,Good,38,Good,1,Good,19,Good,57.5667,12.1,Europe
548,Italy,Lissone,33,Good,1,Good,33,Good,2,Good,23,Good,45.6167,9.25,Europe
549,United States,Lockhart,47,Good,1,Good,21,Good,2,Good,47,Good,29.8785,-97.6831,North America
550,Germany,Lohmar,33,Good,1,Good,33,Good,2,Good,29,Good,50.8167,7.2167,Europe
551,China,Loudi,99,Moderate,4,Good,99,Moderate,5,Good,97,Moderate,27.7378,111.9974,Asia
552,Angola,Luena,66,Moderate,1,Good,22,Good,0,Good,66,Moderate,-11.7918,19.9062,Africa
553,Belarus,Lyuban,52,Moderate,1,Good,28,Good,1,Good,52,Moderate,52.7819,28.0525,Europe
554,Russia,Lyudinovo,70,Moderate,1,Good,23,Good,2,Good,70,Moderate,53.8667,34.4333,Asia
555,Netherlands,Maassluis,38,Good,1,Good,27,Good,4,Good,38,Good,51.9333,4.2333,Europe
556,Guinea,Macenta,32,Good,1,Good,14,Good,0,Good,32,Good,8.5504,-9.48,Africa
557,United States,Machesney Park,72,Moderate,3,Good,0,Good,10,Good,72,Moderate,42.3666,-89.0266,North America
558,Germany,Mainburg,29,Good,0,Good,28,Good,1,Good,29,Good,48.65,11.7833,Europe
559,Indonesia,Malang,67,Moderate,1,Good,36,Good,0,Good,67,Moderate,-7.98,112.62,Asia
560,Philippines,Manapla,54,Moderate,1,Good,22,Good,0,Good,54,Moderate,10.958,123.123,Asia
561,Italy,Manfredonia,49,Good,1,Good,49,Good,0,Good,36,Good,41.6333,15.9167,Europe
562,Spain,Maracena,32,Good,1,Good,32,Good,1,Good,15,Good,37.2,-3.6333,Europe
563,Philippines,Margosatubig,17,Good,0,Good,16,Good,0,Good,17,Good,7.5783,123.1659,Asia
564,Russia,Kotelnich,33,Good,1,Good,33,Good,0,Good,10,Good,58.3078,48.3181,Asia
565,Russia,Krasnodar,44,Good,1,Good,44,Good,4,Good,31,Good,45.0333,38.9667,Asia
566,Russia,Krasnogorsk,61,Moderate,1,Good,24,Good,10,Good,61,Moderate,55.8217,37.3386,Asia
567,Russia,Krasnokamsk,25,Good,1,Good,25,Good,0,Good,19,Good,58.0833,55.6833,Asia
568,Norway,Kristiansand,52,Moderate,0,Good,34,Good,1,Good,52,Moderate,58.1472,7.9972,Europe
569,Russia,Kurtamysh,31,Good,1,Good,31,Good,0,Good,31,Good,54.9167,64.4333,Asia
570,Belgium,Kuurne,38,Good,1,Good,23,Good,3,Good,38,Good,50.8519,3.2861,Europe
571,France,La Madeleine,38,Good,1,Good,23,Good,3,Good,38,Good,50.6558,3.071,Europe
572,Mexico,La Piedad,52,Moderate,1,Good,6,Good,5,Good,52,Moderate,20.3333,-102.0167,North America
573,Portugal,Marinha Grande,40,Good,0,Good,29,Good,1,Good,40,Good,39.75,-8.9333,Europe
574,Morocco,Martil,39,Good,1,Good,39,Good,4,Good,38,Good,35.6167,-5.2667,Africa
575,Indonesia,Mataram,34,Good,1,Good,25,Good,0,Good,34,Good,-8.5833,116.1167,Asia
576,China,Matou,111,Unhealthy for Sensitive Groups,2,Good,42,Good,8,Good,111,Unhealthy for Sensitive Groups,39.5503,116.1063,Asia
577,United States,Matteson,77,Moderate,2,Good,10,Good,27,Good,77,Moderate,41.5095,-87.7468,North America
578,Brazil,Medeiros Neto,52,Moderate,1,Good,6,Good,1,Good,52,Moderate,-17.3739,-40.2208,South America
579,Italy,Melegnano,44,Good,1,Good,33,Good,3,Good,44,Good,45.3588,9.3238,Europe
580,Germany,Dreieich,37,Good,1,Good,37,Good,1,Good,30,Good,50.0,8.7,Europe
581,United Kingdom,Dronfield,39,Good,0,Good,31,Good,1,Good,39,Good,53.3024,-1.4664,Europe
582,India,Dumjor,179,Unhealthy,3,Good,102,Unhealthy for Sensitive Groups,4,Good,179,Unhealthy,22.64,88.22,Asia
583,Hungary,Dunaharaszti,51,Moderate,1,Good,27,Good,2,Good,51,Moderate,47.3539,19.0948,Europe
584,United Kingdom,East Grinstead,36,Good,0,Good,27,Good,3,Good,36,Good,51.13,-0.0,Europe
585,United Kingdom,Ebbw Vale,50,Good,0,Good,29,Good,1,Good,50,Good,51.78,-3.21,Europe
586,United States,Ecorse,51,Moderate,1,Good,28,Good,9,Good,51,Moderate,42.2489,-83.1399,North America
587,Ecuador,El Carmen,79,Moderate,3,Good,5,Good,9,Good,79,Moderate,13.7167,-88.9,South America
588,Guatemala,El Quetzal,99,Moderate,3,Good,11,Good,11,Good,99,Moderate,14.7667,-91.8167,North America
589,United States,Elko,24,Good,1,Good,24,Good,2,Good,17,Good,40.8381,-115.7678,North America
590,Germany,Elmshorn,32,Good,1,Good,32,Good,2,Good,26,Good,53.7519,9.6511,Europe
591,United States,Enumclaw,29,Good,1,Good,29,Good,2,Good,23,Good,47.2018,-121.9897,North America
592,Mongolia,Erdenet,81,Moderate,1,Good,34,Good,0,Good,81,Moderate,49.0278,104.0444,Asia
593,Turkey,Erzurum,74,Moderate,0,Good,40,Good,0,Good,74,Moderate,39.9086,41.2769,Europe
594,Kazakhstan,Esik,130,Unhealthy for Sensitive Groups,1,Good,30,Good,0,Good,130,Unhealthy for Sensitive Groups,43.35,77.4667,Asia
595,Brazil,Esperantina,55,Moderate,2,Good,1,Good,3,Good,55,Moderate,-3.9019,-42.2339,South America
596,Belgium,Essen,38,Good,1,Good,28,Good,4,Good,38,Good,51.4508,7.0131,Europe
597,Spain,Estepa,31,Good,1,Good,31,Good,2,Good,25,Good,37.2917,-4.8792,Europe
598,Italy,Fabriano,40,Good,1,Good,40,Good,1,Good,30,Good,43.3333,12.9167,Europe
599,United States,Fairview Heights,45,Good,1,Good,32,Good,8,Good,45,Good,38.5974,-90.0053,North America
600,Pakistan,Faisalabad,301,Hazardous,1,Good,82,Moderate,1,Good,301,Hazardous,31.4167,73.0911,Asia
601,United States,Falls Church,59,Moderate,2,Good,41,Good,5,Good,59,Moderate,38.8847,-77.1751,North America
602,United Kingdom,Falmouth,78,Moderate,0,Good,37,Good,0,Good,78,Moderate,50.15,-5.07,Europe
603,France,Fameck,28,Good,1,Good,27,Good,2,Good,28,Good,49.2992,6.1097,Europe
604,Italy,Fano,44,Good,1,Good,44,Good,0,Good,33,Good,43.8333,13.0167,Europe
605,Germany,Fellbach,30,Good,0,Good,30,Good,2,Good,26,Good,48.8086,9.2758,Europe
606,Malta,Fgura,49,Good,1,Good,49,Good,0,Good,47,Good,35.8725,14.5228,Europe
607,India,Forbesganj,217,Very Unhealthy,3,Good,103,Unhealthy for Sensitive Groups,1,Good,217,Very Unhealthy,26.3,87.265,Asia
608,Italy,Forlimpopoli,38,Good,1,Good,38,Good,1,Good,36,Good,44.1833,12.1333,Europe
609,Argentina,Formosa,32,Good,0,Good,13,Good,0,Good,32,Good,-26.1833,-58.1833,South America
610,United States,Fort Atkinson,64,Moderate,2,Good,5,Good,15,Good,64,Moderate,42.9253,-88.8442,North America
611,United States,Fort Morgan,58,Moderate,1,Good,24,Good,4,Good,58,Moderate,40.2537,-103.7903,North America
612,Rwanda,Gisenyi,157,Unhealthy,4,Good,17,Good,2,Good,157,Unhealthy,-1.7,29.25,Africa
613,United States,Gladeview,84,Moderate,1,Good,9,Good,15,Good,84,Moderate,25.8395,-80.2368,North America
614,Netherlands,Gorinchem,40,Good,1,Good,28,Good,4,Good,40,Good,51.8306,4.9742,Europe
615,France,Goussainville,51,Moderate,1,Good,21,Good,5,Good,51,Moderate,49.0325,2.4747,Europe
616,United States,Grand Junction,43,Good,1,Good,17,Good,4,Good,43,Good,39.0877,-108.5673,North America
617,France,Grasse,72,Moderate,1,Good,34,Good,3,Good,72,Moderate,43.6667,6.9167,Europe
618,United States,Greeneville,66,Moderate,2,Good,12,Good,15,Good,66,Moderate,36.168,-82.8197,North America
619,United States,Greenwood Village,75,Moderate,2,Good,5,Good,14,Good,75,Moderate,39.6153,-104.9131,North America
620,Ecuador,Guaranda,59,Moderate,2,Good,1,Good,6,Good,59,Moderate,-1.6,-79.0,South America
621,Portugal,Guarda,32,Good,1,Good,25,Good,1,Good,32,Good,40.5333,-7.3333,Europe
622,Italy,Guastalla,85,Moderate,1,Good,27,Good,6,Good,85,Moderate,44.9167,10.6667,Europe
623,China,Guiyang,99,Moderate,3,Good,41,Good,6,Good,99,Moderate,26.5794,106.7078,Asia
624,Germany,Gummersbach,34,Good,1,Good,34,Good,2,Good,27,Good,51.0333,7.5667,Europe
625,Germany,Hille,37,Good,1,Good,37,Good,1,Good,24,Good,52.3331,8.75,Europe
626,Haiti,Hinche,144,Unhealthy for Sensitive Groups,3,Good,4,Good,12,Good,144,Unhealthy for Sensitive Groups,19.15,-72.0167,North America
627,United States,Hollins,64,Moderate,1,Good,29,Good,4,Good,64,Moderate,37.3434,-79.9534,North America
628,Germany,Homburg,31,Good,1,Good,25,Good,3,Good,31,Good,49.3167,7.3333,Europe
629,United States,Hot Springs,72,Moderate,2,Good,17,Good,7,Good,72,Moderate,34.4892,-93.0501,North America
630,China,Huadian,70,Moderate,2,Good,28,Good,2,Good,70,Moderate,42.9633,126.7478,Asia
631,Mexico,Huatusco,95,Moderate,3,Good,8,Good,11,Good,95,Moderate,19.1489,-96.9661,North America
632,China,Huinan,68,Moderate,2,Good,29,Good,2,Good,68,Moderate,42.6229,126.2614,Asia
633,China,Huizhou,124,Unhealthy for Sensitive Groups,4,Good,44,Good,7,Good,124,Unhealthy for Sensitive Groups,23.1115,114.4152,Asia
634,Germany,Husum,32,Good,1,Good,32,Good,2,Good,24,Good,54.4667,9.05,Europe
635,Netherlands,Geldermalsen,39,Good,1,Good,29,Good,4,Good,39,Good,51.8833,5.2833,Europe
636,Romania,Gheorgheni,61,Moderate,1,Good,40,Good,0,Good,61,Moderate,46.72,25.59,Europe
637,India,Gwalior,174,Unhealthy,1,Good,46,Good,0,Good,174,Unhealthy,26.2215,78.178,Asia
638,United States,Hallandale Beach,83,Moderate,1,Good,11,Good,12,Good,83,Moderate,25.9854,-80.1423,North America
639,Sweden,Halmstad,38,Good,0,Good,38,Good,0,Good,20,Good,56.6739,12.8572,Europe
640,Germany,Hameln,37,Good,1,Good,37,Good,1,Good,24,Good,52.1,9.3667,Europe
641,Germany,Hamminkeln,34,Good,1,Good,28,Good,4,Good,34,Good,51.7319,6.5908,Europe
642,Hungary,Hatvan,38,Good,1,Good,32,Good,1,Good,38,Good,47.6681,19.6697,Europe
643,United States,Havelock,53,Moderate,1,Good,45,Good,1,Good,53,Moderate,34.9078,-76.8987,North America
644,United States,Healdsburg,31,Good,1,Good,31,Good,1,Good,26,Good,38.6224,-122.8651,North America
645,Germany,Herrenberg,32,Good,0,Good,32,Good,1,Good,26,Good,48.5967,8.8708,Europe
646,United States,Hialeah,93,Moderate,2,Good,6,Good,17,Good,93,Moderate,25.8696,-80.3045,North America
647,Brazil,Fortaleza,25,Good,1,Good,7,Good,1,Good,25,Good,-3.7275,-38.5275,South America
648,United States,Frisco,56,Moderate,1,Good,20,Good,7,Good,56,Moderate,33.156,-96.8216,North America
649,Japan,Furukawa,38,Good,1,Good,38,Good,0,Good,14,Good,36.2381,137.1862,Asia
650,Botswana,Gabane,31,Good,1,Good,18,Good,0,Good,31,Good,-24.6667,25.7833,Africa
651,Colombia,Garagoa,36,Good,1,Good,5,Good,3,Good,36,Good,5.0833,-73.3667,South America
652,United States,Gardner,45,Good,1,Good,45,Good,1,Good,25,Good,38.8122,-94.9275,North America
653,United States,Middleburg Heights,47,Good,1,Good,30,Good,8,Good,47,Good,41.3696,-81.815,North America
654,Poland,Mielec,61,Moderate,1,Good,27,Good,2,Good,61,Moderate,50.2833,21.4333,Europe
655,Spain,Mieres,46,Good,1,Good,26,Good,4,Good,46,Good,43.2508,-5.7767,Europe
656,Russia,Mikhaylovka,43,Good,1,Good,31,Good,0,Good,43,Good,50.0667,43.25,Asia
657,Tanzania,Mikumi,26,Good,0,Good,16,Good,0,Good,26,Good,-7.4072,36.9722,Africa
658,Ecuador,Milagro,59,Moderate,1,Good,13,Good,6,Good,59,Moderate,-2.1347,-79.5872,South America
659,United States,Millcreek,44,Good,1,Good,21,Good,8,Good,44,Good,40.6892,-111.8292,North America
660,United States,Milledgeville,72,Moderate,2,Good,16,Good,10,Good,72,Moderate,33.0874,-83.2414,North America
661,Botswana,Mogoditshane,32,Good,1,Good,17,Good,0,Good,32,Good,-24.6333,25.8667,Africa
662,Sri Lanka,Monaragala,46,Good,1,Good,32,Good,0,Good,46,Good,6.8726,81.3373,Asia
663,Guatemala,Monjas,64,Moderate,2,Good,9,Good,7,Good,64,Moderate,14.501,-89.8723,North America
664,United States,Montebello,125,Unhealthy for Sensitive Groups,4,Good,4,Good,36,Good,125,Unhealthy for Sensitive Groups,34.0155,-118.1108,North America
665,Brazil,Monteiro,24,Good,0,Good,13,Good,0,Good,24,Good,-7.8889,-37.12,South America
666,France,Montgeron,50,Good,1,Good,22,Good,5,Good,50,Good,48.7039,2.4605,Europe
667,Nigeria,Mubi,48,Good,2,Good,21,Good,0,Good,48,Good,10.2604,13.2606,Africa
668,Burundi,Muramvya,67,Moderate,4,Good,20,Good,1,Good,67,Moderate,-3.25,29.6,Africa
669,United States,Muscle Shoals,54,Moderate,1,Good,19,Good,6,Good,54,Moderate,34.7432,-87.6343,North America
670,India,Nainpur,153,Unhealthy,0,Good,38,Good,0,Good,153,Unhealthy,22.43,80.12,Asia
671,Japan,Nakatsugawa,51,Moderate,1,Good,51,Moderate,1,Good,44,Good,35.4876,137.5006,Asia
672,Pakistan,Nankana Sahib,356,Hazardous,2,Good,100,Unhealthy for Sensitive Groups,1,Good,354,Hazardous,31.45,73.7067,Asia
673,United States,Narragansett,78,Moderate,2,Good,43,Good,6,Good,78,Moderate,41.4291,-71.4668,North America
674,China,Nehe,39,Good,1,Good,39,Good,0,Good,18,Good,48.48,124.8738,Asia
675,United States,Nesconset,73,Moderate,2,Good,40,Good,10,Good,73,Moderate,40.8467,-73.1522,North America
676,Germany,Netphen,34,Good,1,Good,34,Good,2,Good,28,Good,50.9147,8.1,Europe
677,United States,New Haven,57,Moderate,1,Good,45,Good,4,Good,57,Moderate,41.3113,-72.9246,North America
678,United States,New Iberia,39,Good,1,Good,20,Good,4,Good,39,Good,30.0049,-91.8202,North America
679,United Kingdom,Newport,47,Good,0,Good,27,Good,3,Good,47,Good,51.5886,-2.9978,Europe
680,Tanzania,Ngara,64,Moderate,3,Good,14,Good,1,Good,64,Moderate,-2.5122,30.6558,Africa
681,Tanzania,Ngorongoro,33,Good,0,Good,15,Good,0,Good,33,Good,-3.2496,35.52,Africa
682,Russia,Nikel,32,Good,1,Good,32,Good,0,Good,9,Good,69.4081,30.2206,Asia
683,France,Niort,32,Good,0,Good,32,Good,1,Good,18,Good,46.3258,-0.4606,Europe
684,Russia,Nizhniy Lomov,51,Moderate,0,Good,31,Good,0,Good,51,Moderate,53.5167,43.6667,Asia
685,Turkey,Nizip,112,Unhealthy for Sensitive Groups,1,Good,47,Good,0,Good,112,Unhealthy for Sensitive Groups,37.01,37.7972,Europe
686,Italy,Noci,55,Moderate,1,Good,55,Moderate,0,Good,42,Good,40.8,17.1333,Europe
687,Thailand,Phuket,43,Good,1,Good,33,Good,0,Good,43,Good,7.8881,98.3975,Asia
688,India,Phulera,291,Very Unhealthy,1,Good,41,Good,0,Good,291,Very Unhealthy,26.87,75.23,Asia
689,United States,Pickerington,52,Moderate,1,Good,48,Good,3,Good,52,Moderate,39.889,-82.7678,North America
690,China,Pingyi,151,Unhealthy,3,Good,151,Unhealthy,2,Good,97,Moderate,35.5104,117.62,Asia
691,Italy,Poggibonsi,58,Moderate,1,Good,47,Good,3,Good,58,Moderate,43.4667,11.15,Europe
692,Brazil,Pojuca,48,Good,1,Good,9,Good,4,Good,48,Good,-12.3659,-38.2433,South America
693,Italy,Pontinia,42,Good,1,Good,39,Good,4,Good,42,Good,41.4083,13.0443,Europe
694,Brazil,Porangatu,29,Good,1,Good,6,Good,1,Good,29,Good,-13.4408,-49.1489,South America
695,Jamaica,Port Antonio,41,Good,0,Good,26,Good,1,Good,41,Good,18.1757,-76.4503,North America
696,Canada,Powell River,28,Good,1,Good,28,Good,0,Good,12,Good,49.8353,-124.5247,North America
697,Brazil,Presidente Bernardes,43,Good,1,Good,14,Good,1,Good,43,Good,-22.0061,-51.5531,South America
698,Russia,Privolzhsk,32,Good,1,Good,32,Good,1,Good,29,Good,57.3825,41.2861,Asia
699,Germany,Puchheim,52,Moderate,1,Good,35,Good,4,Good,52,Moderate,48.15,11.35,Europe
700,Chile,Punta Arenas,17,Good,0,Good,17,Good,0,Good,3,Good,-53.1667,-70.9333,South America
701,Indonesia,Purwakarta,101,Unhealthy for Sensitive Groups,2,Good,90,Moderate,1,Good,101,Unhealthy for Sensitive Groups,-6.5533,107.4472,Asia
702,Belgium,Quaregnon,55,Moderate,1,Good,27,Good,4,Good,55,Moderate,50.4333,3.8667,Europe
703,Italy,Quartucciu,54,Moderate,1,Good,36,Good,3,Good,54,Moderate,39.2529,9.1762,Europe
704,Brazil,Quatis,88,Moderate,3,Good,0,Good,7,Good,88,Moderate,-22.4069,-44.2578,South America
705,Poland,Radomsko,76,Moderate,1,Good,39,Good,1,Good,76,Moderate,51.0667,19.45,Europe
706,United States,Olive Branch,65,Moderate,1,Good,28,Good,4,Good,65,Moderate,34.961,-89.8469,North America
707,Russia,Onega,35,Good,1,Good,35,Good,0,Good,16,Good,63.9167,38.0833,Asia
708,Switzerland,Opfikon,43,Good,2,Good,23,Good,5,Good,43,Good,47.4333,8.5667,Europe
709,United States,Oregon City,48,Good,1,Good,12,Good,13,Good,48,Good,45.3418,-122.5924,North America
710,United States,Ormond Beach,63,Moderate,1,Good,23,Good,7,Good,63,Moderate,29.2985,-81.1014,North America
711,Germany,Oschatz,64,Moderate,1,Good,39,Good,1,Good,64,Moderate,51.3003,13.1072,Europe
712,Belgium,Overpelt,37,Good,1,Good,30,Good,3,Good,37,Good,51.2167,5.4167,Europe
713,Italy,Ozieri,53,Moderate,2,Good,23,Good,6,Good,53,Moderate,40.5849,9.0033,Europe
714,Uganda,Paidha,59,Moderate,1,Good,17,Good,0,Good,59,Moderate,2.4167,30.9875,Africa
715,Thailand,Pakxan,53,Moderate,1,Good,27,Good,0,Good,53,Moderate,18.3964,103.6558,Asia
716,Indonesia,Palembang,74,Moderate,2,Good,47,Good,0,Good,74,Moderate,-2.9861,104.7556,Asia
717,United States,Paradise Valley,51,Moderate,1,Good,19,Good,15,Good,51,Moderate,33.5434,-111.9595,North America
718,Brazil,Paraibano,15,Good,0,Good,14,Good,0,Good,15,Good,-6.4328,-43.9839,South America
719,Bolivia,Patacamaya,20,Good,0,Good,7,Good,1,Good,20,Good,-17.2333,-67.9167,South America
720,United States,Patchogue,74,Moderate,3,Good,20,Good,26,Good,74,Moderate,40.7621,-73.0185,North America
721,Russia,Pavlovo,34,Good,1,Good,34,Good,0,Good,28,Good,55.9667,43.0667,Asia
722,United States,Pearland,103,Unhealthy for Sensitive Groups,1,Good,19,Good,4,Good,103,Unhealthy for Sensitive Groups,29.5581,-95.3218,North America
723,Italy,Pergine Valsugana,58,Moderate,2,Good,31,Good,4,Good,58,Moderate,46.0667,11.2333,Europe
724,France,Pertuis,151,Unhealthy,1,Good,31,Good,5,Good,151,Unhealthy,43.695,5.5036,Europe
725,Brazil,Petrolina,14,Good,0,Good,14,Good,0,Good,13,Good,-9.3928,-40.5078,South America
726,Russia,Petushki,49,Good,1,Good,28,Good,6,Good,49,Good,55.9333,39.4667,Asia
727,Germany,Pfullendorf,51,Moderate,1,Good,22,Good,6,Good,51,Moderate,47.9242,9.2567,Europe
728,South Africa,Phalaborwa,49,Good,1,Good,31,Good,0,Good,49,Good,-23.9333,31.1167,Africa
729,Netherlands,Dordrecht,30,Good,1,Good,30,Good,3,Good,20,Good,51.7958,4.6783,Europe
730,Romania,Dorohoi,40,Good,1,Good,35,Good,1,Good,40,Good,47.9597,26.3997,Europe
731,United States,Dracut,72,Moderate,2,Good,15,Good,16,Good,72,Moderate,42.6832,-71.301,North America
732,India,Dumka,85,Moderate,2,Good,85,Moderate,1,Good,61,Moderate,24.42,87.34,Asia
733,Russia,Dyurtyuli,37,Good,1,Good,26,Good,0,Good,37,Good,55.4833,54.8667,Asia
734,United States,East Islip,87,Moderate,4,Good,14,Good,33,Good,87,Moderate,40.7257,-73.1869,North America
735,United States,East Rockaway,109,Unhealthy for Sensitive Groups,3,Good,16,Good,31,Good,109,Unhealthy for Sensitive Groups,40.6432,-73.6672,North America
736,Germany,Eberbach,56,Moderate,1,Good,35,Good,4,Good,56,Moderate,49.4667,8.9833,Europe
737,Germany,Eichenzell,69,Moderate,1,Good,38,Good,2,Good,69,Moderate,50.4934,9.6961,Europe
738,Dominican Republic,El Seibo,57,Moderate,1,Good,19,Good,3,Good,57,Moderate,18.763,-69.042,North America
739,Turkey,Elbistan,62,Moderate,1,Good,33,Good,1,Good,62,Moderate,38.2014,37.1883,Europe
740,Kenya,Eldama Ravine,78,Moderate,3,Good,25,Good,1,Good,78,Moderate,0.05,35.7167,Africa
741,Brazil,Elias Fausto,90,Moderate,2,Good,7,Good,8,Good,90,Moderate,-23.0428,-47.3739,South America
742,Norway,Elverum,30,Good,0,Good,30,Good,0,Good,26,Good,60.8819,11.5623,Europe
743,Mexico,Empalme,56,Moderate,1,Good,30,Good,1,Good,56,Moderate,27.9617,-110.8125,North America
744,Netherlands,Enschede,32,Good,0,Good,32,Good,1,Good,17,Good,52.2167,6.9,Europe
745,Germany,Erbach,57,Moderate,1,Good,43,Good,2,Good,57,Moderate,49.6569,8.9931,Europe
746,Germany,Erkelenz,45,Good,1,Good,35,Good,2,Good,45,Good,51.0833,6.3167,Europe
747,United States,Erlanger,67,Moderate,2,Good,35,Good,13,Good,67,Moderate,39.0109,-84.5864,North America
748,Portugal,Esmoriz,34,Good,1,Good,34,Good,2,Good,30,Good,40.955,-8.627,Europe
749,United States,Fernandina Beach,54,Moderate,1,Good,25,Good,6,Good,54,Moderate,30.6571,-81.4511,North America
750,United States,Finneytown,70,Moderate,2,Good,28,Good,16,Good,70,Moderate,39.2159,-84.5144,North America
751,United States,Florham Park,105,Unhealthy for Sensitive Groups,3,Good,12,Good,26,Good,105,Unhealthy for Sensitive Groups,40.7773,-74.3953,North America
752,Germany,Forchheim,59,Moderate,1,Good,36,Good,4,Good,59,Moderate,49.7197,11.0581,Europe
753,United Kingdom,Fraserburgh,33,Good,0,Good,33,Good,1,Good,9,Good,57.693,-2.005,Europe
754,Ivory Coast,Gagnoa,39,Good,1,Good,18,Good,0,Good,39,Good,6.1333,-5.9333,Africa
755,Brazil,Garanhuns,20,Good,0,Good,16,Good,1,Good,20,Good,-8.8903,-36.4928,South America
756,Italy,Garbagnate Milanese,75,Moderate,2,Good,29,Good,8,Good,75,Moderate,45.5771,9.0814,Europe
757,United States,Garden Acres,32,Good,1,Good,30,Good,7,Good,32,Good,37.9637,-121.2296,North America
758,Congo,Gbadolite,39,Good,2,Good,10,Good,0,Good,39,Good,4.275,21.0,Africa
759,Rwanda,Gikongoro,78,Moderate,6,Good,17,Good,3,Good,78,Moderate,-2.4697,29.5814,Africa
760,United Kingdom,Gillingham,32,Good,0,Good,32,Good,2,Good,16,Good,51.385,0.55,Europe
761,Brazil,Piracanjuba,30,Good,0,Good,12,Good,1,Good,30,Good,-17.3028,-49.0178,South America
762,United States,Plattsburgh,43,Good,1,Good,12,Good,5,Good,43,Good,44.6951,-73.4563,North America
763,Pakistan,Khushab,165,Unhealthy,4,Good,78,Moderate,6,Good,165,Unhealthy,32.2986,72.3508,Asia
764,Germany,Kiel,42,Good,1,Good,42,Good,0,Good,26,Good,54.3233,10.1394,Europe
765,Rwanda,Kigali,107,Unhealthy for Sensitive Groups,2,Good,29,Good,1,Good,107,Unhealthy for Sensitive Groups,-1.9536,30.0606,Africa
766,Russia,Kimry,35,Good,1,Good,35,Good,0,Good,15,Good,56.8667,37.35,Asia
767,Ghana,Kintampo,35,Good,1,Good,23,Good,0,Good,35,Good,8.0522,-1.7347,Africa
768,Hungary,Kiskunhalas,58,Moderate,1,Good,58,Moderate,0,Good,54,Moderate,46.4319,19.4883,Europe
769,Uganda,Kitgum,51,Moderate,1,Good,15,Good,0,Good,51,Moderate,3.2889,32.8778,Africa
770,India,Kodala,109,Unhealthy for Sensitive Groups,3,Good,47,Good,2,Good,109,Unhealthy for Sensitive Groups,19.6243,84.9408,Asia
771,Slovenia,Koper,81,Moderate,1,Good,49,Good,0,Good,81,Moderate,45.55,13.7333,Europe
772,India,Koratla,174,Unhealthy,2,Good,44,Good,4,Good,174,Unhealthy,18.8215,78.7119,Asia
773,Belgium,Kortenberg,53,Moderate,1,Good,38,Good,2,Good,53,Moderate,50.8833,4.5333,Europe
774,India,Kosgi,117,Unhealthy for Sensitive Groups,2,Good,40,Good,5,Good,117,Unhealthy for Sensitive Groups,16.9839,77.7193,Asia
775,Russia,Krasnogvardeyskoye,48,Good,1,Good,48,Good,0,Good,19,Good,45.85,41.5167,Asia
776,Russia,Kudymkar,43,Good,1,Good,39,Good,0,Good,43,Good,59.0167,54.6667,Asia
777,India,Kukshi,128,Unhealthy for Sensitive Groups,1,Good,35,Good,2,Good,128,Unhealthy for Sensitive Groups,22.2068,74.7579,Asia
778,Burma (Myanmar),Labutta,30,Good,1,Good,30,Good,0,Good,28,Good,16.1467,94.7611,Asia
779,United States,Lake Havasu City,66,Moderate,1,Good,28,Good,1,Good,66,Moderate,34.5006,-114.3113,North America
780,United States,Laramie,35,Good,0,Good,35,Good,0,Good,8,Good,41.3099,-105.6085,North America
781,Brazil,Laranjal Paulista,78,Moderate,1,Good,33,Good,1,Good,78,Moderate,-23.0118,-47.8657,South America
782,France,Lattes,48,Good,1,Good,48,Good,0,Good,29,Good,43.5678,3.9021,Europe
783,France,Laxou,75,Moderate,1,Good,54,Moderate,0,Good,75,Moderate,48.6856,6.1522,Europe
784,Mauritius,Le Hochet,55,Moderate,1,Good,27,Good,0,Good,55,Moderate,-20.135,57.5211,Africa
785,Italy,Legnago,84,Moderate,1,Good,62,Moderate,0,Good,84,Moderate,45.1929,11.3115,Europe
786,United Kingdom,Leighton Buzzard,32,Good,1,Good,29,Good,1,Good,32,Good,51.9165,-0.6617,Europe
787,Austria,Leoben,63,Moderate,1,Good,39,Good,0,Good,63,Moderate,47.3817,15.0972,Europe
788,Indonesia,Leuwiliang,264,Very Unhealthy,15,Good,8,Good,52,Moderate,264,Very Unhealthy,-6.5742,106.632,Asia
789,United States,Lino Lakes,50,Good,1,Good,32,Good,1,Good,50,Good,45.1679,-93.083,North America
790,Brazil,Lins,60,Moderate,1,Good,29,Good,0,Good,60,Moderate,-21.6786,-49.7425,South America
791,Brazil,Londrina,35,Good,1,Good,17,Good,0,Good,35,Good,-23.31,-51.1628,South America
792,France,Longuenesse,35,Good,1,Good,35,Good,0,Good,31,Good,50.7356,2.2372,Europe
793,United States,Los Angeles,116,Unhealthy for Sensitive Groups,3,Good,19,Good,25,Good,116,Unhealthy for Sensitive Groups,34.1141,-118.4068,North America
794,Spain,Los Barrios,45,Good,1,Good,45,Good,0,Good,28,Good,36.1833,-5.4833,Europe
795,United Kingdom,Luton,34,Good,1,Good,30,Good,1,Good,34,Good,51.8783,-0.4147,Europe
796,Brazil,Macatuba,67,Moderate,1,Good,21,Good,1,Good,67,Moderate,-22.5022,-48.7114,South America
797,Italy,Macerata,76,Moderate,1,Good,59,Moderate,0,Good,76,Moderate,43.3003,13.4533,Europe
798,China,Shenzhen,154,Unhealthy,3,Good,2,Good,28,Good,154,Unhealthy,22.535,114.054,Asia
799,China,Shihezi,97,Moderate,2,Good,25,Good,6,Good,97,Moderate,44.3054,86.0804,Asia
800,United States,Sierra Madre,148,Unhealthy for Sensitive Groups,3,Good,18,Good,23,Good,148,Unhealthy for Sensitive Groups,34.1687,-118.0504,North America
801,United States,Sierra Vista,61,Moderate,1,Good,21,Good,3,Good,61,Moderate,31.563,-110.3153,North America
802,Latvia,Sigulda,35,Good,1,Good,35,Good,0,Good,17,Good,57.15,24.8667,Europe
803,United States,Siloam Springs,53,Moderate,1,Good,46,Good,0,Good,53,Moderate,36.1844,-94.5315,North America
804,Colombia,Soacha,71,Moderate,2,Good,16,Good,3,Good,71,Moderate,4.5872,-74.2214,South America
805,United States,Sacramento,36,Good,1,Good,26,Good,9,Good,36,Good,38.5677,-121.4685,North America
806,United Kingdom,Saint Albans,28,Good,1,Good,28,Good,3,Good,17,Good,51.755,-0.336,Europe
807,United Kingdom,Saint Andrews,26,Good,1,Good,26,Good,2,Good,15,Good,56.3404,-2.7955,Europe
808,Italy,Recco,75,Moderate,1,Good,43,Good,3,Good,75,Moderate,44.3667,9.15,Europe
809,Germany,Rehau,68,Moderate,1,Good,40,Good,1,Good,68,Moderate,50.25,12.0167,Europe
810,United States,Reynoldsburg,48,Good,1,Good,48,Good,3,Good,29,Good,39.9588,-82.7943,North America
811,Italy,Ribera,43,Good,1,Good,28,Good,4,Good,43,Good,37.4994,13.265,Europe
812,United States,Richland,33,Good,1,Good,33,Good,2,Good,15,Good,46.2824,-119.2939,North America
813,Germany,Riegelsberg,46,Good,1,Good,32,Good,4,Good,46,Good,49.2942,6.9375,Europe
814,Germany,Riesa,69,Moderate,1,Good,36,Good,2,Good,69,Moderate,51.3081,13.2939,Europe
815,Denmark,Ringsted,36,Good,0,Good,36,Good,0,Good,16,Good,55.4425,11.79,Europe
816,Mexico,Rio Grande,58,Moderate,1,Good,21,Good,1,Good,58,Moderate,-32.035,-52.0986,North America
817,Nicaragua,Rivas,46,Good,1,Good,21,Good,0,Good,46,Good,11.4386,-85.8286,North America
818,France,Ronchin,47,Good,1,Good,25,Good,5,Good,47,Good,50.6047,3.0878,Europe
819,France,Roncq,44,Good,1,Good,27,Good,5,Good,44,Good,50.7536,3.1203,Europe
820,United Kingdom,Rugby,28,Good,1,Good,23,Good,5,Good,28,Good,52.37,-1.26,Europe
821,United Kingdom,Rugeley,50,Good,1,Good,15,Good,10,Good,50,Good,52.7599,-1.9388,Europe
822,Mexico,Salamanca,137,Unhealthy for Sensitive Groups,3,Good,9,Good,10,Good,137,Unhealthy for Sensitive Groups,20.5703,-101.1972,North America
823,Russia,Salekhard,19,Good,1,Good,19,Good,0,Good,11,Good,66.5333,66.6333,Asia
824,Uzbekistan,Samarkand,108,Unhealthy for Sensitive Groups,1,Good,52,Moderate,1,Good,108,Unhealthy for Sensitive Groups,39.6547,66.9758,Asia
825,United States,Daphne,72,Moderate,1,Good,29,Good,2,Good,72,Moderate,30.6263,-87.8816,North America
826,India,Datia,226,Very Unhealthy,1,Good,48,Good,0,Good,226,Very Unhealthy,25.67,78.47,Asia
827,United States,Deerfield,57,Moderate,2,Good,27,Good,13,Good,57,Moderate,42.1654,-87.8516,North America
828,Germany,Demmin,35,Good,0,Good,35,Good,1,Good,20,Good,53.905,13.0439,Europe
829,Pakistan,Dera Ismail Khan,180,Unhealthy,2,Good,107,Unhealthy for Sensitive Groups,0,Good,180,Unhealthy,31.8314,70.9019,Asia
830,India,Devanhalli,65,Moderate,0,Good,21,Good,0,Good,65,Moderate,13.23,77.7,Asia
831,Senegal,Diourbel,154,Unhealthy,2,Good,13,Good,4,Good,154,Unhealthy,14.655,-16.2314,Africa
832,Japan,Sasaguri,49,Good,1,Good,49,Good,3,Good,43,Good,33.6239,130.5262,Asia
833,Germany,Schenefeld,43,Good,1,Good,43,Good,0,Good,25,Good,53.6028,9.8233,Europe
834,United States,Sebastian,43,Good,1,Good,43,Good,2,Good,23,Good,27.7822,-80.4819,North America
835,Peru,Sechura,49,Good,0,Good,24,Good,0,Good,49,Good,-5.5576,-80.8223,South America
836,South Africa,Secunda,154,Unhealthy,2,Good,0,Good,23,Good,154,Unhealthy,-26.5161,29.2028,Africa
837,Germany,Sehnde,44,Good,1,Good,44,Good,0,Good,32,Good,52.3161,9.9642,Europe
838,South Korea,Seoul,421,Hazardous,27,Good,0,Good,91,Moderate,415,Hazardous,37.56,126.99,Asia
839,Italy,Sesto Calende,96,Moderate,1,Good,59,Moderate,0,Good,96,Moderate,45.7333,8.6333,Europe
840,Japan,Seto,112,Unhealthy for Sensitive Groups,3,Good,6,Good,19,Good,112,Unhealthy for Sensitive Groups,35.2236,137.0842,Asia
841,France,Woippy,69,Moderate,1,Good,56,Moderate,0,Good,69,Moderate,49.1511,6.1514,Europe
842,United States,Wood River,82,Moderate,2,Good,41,Good,6,Good,82,Moderate,38.8631,-90.0774,North America
843,Cameroon,Wum,54,Moderate,1,Good,15,Good,0,Good,54,Moderate,6.3833,10.0667,Africa
844,Azerbaijan,Xudat,39,Good,1,Good,31,Good,0,Good,39,Good,41.6281,48.6828,Europe
845,Ukraine,Yahotyn,43,Good,1,Good,43,Good,0,Good,24,Good,50.2569,31.7817,Europe
846,Burkina,Yako,74,Moderate,1,Good,34,Good,0,Good,74,Moderate,12.9667,-2.2667,Africa
847,United States,West Haverstraw,51,Moderate,1,Good,44,Good,1,Good,51,Moderate,41.2063,-73.9884,North America
848,United States,West Point,60,Moderate,1,Good,49,Good,1,Good,60,Moderate,41.122,-112.0995,North America
849,United States,Western Springs,57,Moderate,1,Good,32,Good,5,Good,57,Moderate,41.8023,-87.9006,North America
850,United States,Westford,41,Good,1,Good,35,Good,1,Good,41,Good,42.5864,-71.4401,North America
851,United States,Williamsburg,50,Good,1,Good,42,Good,2,Good,50,Good,37.2693,-76.7076,North America
852,United States,Winter Haven,86,Moderate,1,Good,86,Moderate,1,Good,19,Good,28.0118,-81.7014,North America
853,United States,Wisconsin Rapids,53,Moderate,1,Good,29,Good,0,Good,53,Moderate,44.3927,-89.8265,North America
854,United States,Michigan City,41,Good,1,Good,41,Good,3,Good,24,Good,41.7092,-86.869,North America
855,United States,Middletown,48,Good,1,Good,29,Good,8,Good,48,Good,41.4459,-74.4236,North America
856,Japan,Mihara,36,Good,1,Good,34,Good,5,Good,36,Good,34.4,133.0833,Asia
857,United States,Milford Mill,58,Moderate,1,Good,45,Good,4,Good,58,Moderate,39.3444,-76.7668,North America
858,Cape Verde,Mindelo,36,Good,0,Good,36,Good,0,Good,27,Good,16.886,-24.988,Africa
859,Japan,Minokamo,42,Good,1,Good,42,Good,1,Good,31,Good,35.4402,137.0157,Asia
860,India,Mirganj,168,Unhealthy,4,Good,168,Unhealthy,1,Good,165,Unhealthy,26.3638,84.364,Asia
861,Dominican Republic,Moca,74,Moderate,1,Good,12,Good,10,Good,74,Moderate,19.3833,-70.5167,North America
862,Italy,Modugno,62,Moderate,1,Good,45,Good,3,Good,62,Moderate,41.0833,16.7833,Europe
863,Russia,Mogocha,31,Good,1,Good,31,Good,0,Good,20,Good,53.7333,119.7667,Asia
864,Spain,Moncada,28,Good,1,Good,28,Good,1,Good,27,Good,15.7331,120.5725,Europe
865,Italy,Monfalcone,64,Moderate,1,Good,44,Good,2,Good,64,Moderate,45.8,13.5333,Europe
866,Mexico,Montemorelos,80,Moderate,1,Good,11,Good,2,Good,80,Moderate,25.1872,-99.8267,North America
867,United States,Moorhead,50,Good,1,Good,43,Good,1,Good,50,Good,46.8673,-96.7461,North America
868,Madagascar,Morondava,64,Moderate,1,Good,22,Good,0,Good,64,Moderate,-20.2847,44.3175,Africa
869,Italy,Mortara,74,Moderate,2,Good,32,Good,6,Good,74,Moderate,45.25,8.75,Europe
870,United States,Moses Lake,32,Good,1,Good,32,Good,1,Good,15,Good,47.1279,-119.2759,North America
871,Tanzania,Moshi,25,Good,1,Good,18,Good,0,Good,25,Good,-3.3349,37.3404,Africa
872,Czechia,Most,69,Moderate,1,Good,41,Good,2,Good,69,Moderate,50.5031,13.6367,Europe
873,India,Mulgund,55,Moderate,0,Good,22,Good,0,Good,55,Moderate,15.2807,75.5213,Asia
874,United States,Mundelein,55,Moderate,2,Good,26,Good,13,Good,55,Moderate,42.2693,-88.0102,North America
875,Japan,Nagahama,55,Moderate,1,Good,55,Moderate,1,Good,40,Good,35.3833,136.2833,Asia
876,Kenya,Naivasha,60,Moderate,2,Good,23,Good,0,Good,60,Moderate,-0.7167,36.4333,Africa
877,Thailand,Nakhon Sawan,21,Good,0,Good,21,Good,0,Good,20,Good,15.7133,100.1353,Asia
878,Uzbekistan,Namangan,151,Unhealthy,1,Good,74,Moderate,0,Good,151,Unhealthy,41.0011,71.6683,Asia
879,Mozambique,Nampula,20,Good,0,Good,20,Good,0,Good,19,Good,-15.1167,39.2667,Africa
880,Japan,Narita,43,Good,1,Good,40,Good,1,Good,43,Good,35.7767,140.3183,Asia
881,United States,Natchez,85,Moderate,1,Good,17,Good,3,Good,85,Moderate,31.5437,-91.3867,North America
882,Argentina,Necochea,23,Good,0,Good,23,Good,0,Good,17,Good,-38.55,-58.7333,South America
883,Czechia,Neratovice,78,Moderate,1,Good,43,Good,2,Good,78,Moderate,50.2593,14.5177,Europe
884,Israel,Nesher,61,Moderate,1,Good,50,Good,4,Good,61,Moderate,32.7711,35.0394,Asia
885,Germany,Neuenkirchen,32,Good,0,Good,32,Good,1,Good,20,Good,52.2411,7.3689,Europe
886,Germany,Neuss,47,Good,1,Good,31,Good,3,Good,47,Good,51.2,6.7,Europe
887,United States,New Port Richey,63,Moderate,1,Good,27,Good,7,Good,63,Moderate,28.2468,-82.717,North America
888,India,Nilakkottai,56,Moderate,1,Good,30,Good,0,Good,56,Moderate,10.17,77.87,Asia
889,Nigeria,Nkpor,166,Unhealthy,11,Good,18,Good,8,Good,166,Unhealthy,6.15,6.8333,Africa
890,Italy,Nocera Superiore,56,Moderate,1,Good,56,Moderate,1,Good,50,Good,40.7417,14.6722,Europe
891,Italy,Noicattaro,60,Moderate,1,Good,46,Good,3,Good,60,Moderate,41.0333,16.9833,Europe
892,France,Noisiel,62,Moderate,1,Good,25,Good,4,Good,62,Moderate,48.8547,2.6289,Europe
893,United States,North Fort Myers,54,Moderate,1,Good,16,Good,10,Good,54,Moderate,26.7244,-81.8485,North America
894,United States,North Tonawanda,36,Good,1,Good,27,Good,4,Good,36,Good,43.0457,-78.8659,North America
895,Mauritania,Nouadhibou,157,Unhealthy,0,Good,36,Good,0,Good,157,Unhealthy,20.9333,-17.0333,Africa
896,Russia,Novouralsk,30,Good,1,Good,30,Good,0,Good,27,Good,57.25,60.0833,Asia
897,France,Noyon,76,Moderate,1,Good,31,Good,3,Good,76,Moderate,49.5811,2.9989,Europe
898,Russia,Nurlat,49,Good,1,Good,28,Good,0,Good,49,Good,54.4333,50.8,Asia
899,Denmark,Nuuk,23,Good,1,Good,23,Good,0,Good,17,Good,64.1814,-51.6942,Europe
900,United States,Oak Creek,52,Moderate,2,Good,26,Good,11,Good,52,Moderate,42.8803,-87.9009,North America
901,Japan,Ojiya,31,Good,1,Good,31,Good,2,Good,20,Good,37.3144,138.7951,Asia
902,Ukraine,Okhtyrka,40,Good,1,Good,40,Good,1,Good,24,Good,50.3074,34.9016,Europe
903,United States,Old Saybrook,58,Moderate,2,Good,30,Good,9,Good,58,Moderate,41.3017,-72.3857,North America
904,India,Nattam,67,Moderate,1,Good,34,Good,1,Good,67,Moderate,10.2249,78.231,Asia
905,United States,Collinsville,98,Moderate,3,Good,5,Good,24,Good,98,Moderate,38.677,-90.0063,North America
906,France,Colombes,31,Good,1,Good,28,Good,2,Good,31,Good,48.9236,2.2522,Europe
907,Peru,Concepcion,24,Good,0,Good,5,Good,1,Good,24,Good,15.3249,120.6554,South America
908,Brazil,Contagem,156,Unhealthy,6,Good,0,Good,9,Good,156,Unhealthy,-19.9319,-44.0539,South America
909,United States,Coral Gables,63,Moderate,1,Good,12,Good,13,Good,63,Moderate,25.7037,-80.2715,North America
910,Canada,Corner Brook,35,Good,1,Good,35,Good,0,Good,25,Good,48.9287,-57.926,North America
911,United States,Coronado,38,Good,1,Good,30,Good,11,Good,38,Good,32.6649,-117.1604,North America
912,Brazil,Coronel Fabriciano,60,Moderate,1,Good,3,Good,5,Good,60,Moderate,-19.5189,-42.6289,South America
913,United States,Corvallis,44,Good,1,Good,15,Good,8,Good,44,Good,44.5698,-123.2779,North America
914,Italy,Cosenza,54,Moderate,1,Good,54,Moderate,0,Good,31,Good,39.3,16.25,Europe
915,United States,Country Club Hills,70,Moderate,2,Good,18,Good,15,Good,70,Moderate,41.5636,-87.7251,North America
916,United States,Crest Hill,69,Moderate,2,Good,18,Good,13,Good,69,Moderate,41.5723,-88.1124,North America
917,United States,Crestwood,73,Moderate,2,Good,15,Good,18,Good,73,Moderate,38.5569,-90.3783,North America
918,France,Creutzwald,27,Good,0,Good,27,Good,2,Good,20,Good,49.2053,6.6958,Europe
919,Cuba,Cueto,75,Moderate,1,Good,15,Good,8,Good,75,Moderate,20.6481,-75.9317,North America
920,Spain,Daimiel,40,Good,1,Good,24,Good,3,Good,40,Good,39.0833,-3.6167,Europe
921,United Kingdom,Blackpool,30,Good,0,Good,30,Good,1,Good,21,Good,53.8142,-3.0503,Europe
922,Russia,Blagodarnyy,40,Good,1,Good,40,Good,0,Good,25,Good,45.1,43.45,Asia
923,Brazil,Boa Viagem,34,Good,1,Good,12,Good,1,Good,34,Good,-5.1278,-39.7319,South America
924,Macedonia,Bogovinje,60,Moderate,1,Good,44,Good,0,Good,60,Moderate,41.9233,20.9133,Europe
925,India,Bolpur,201,Very Unhealthy,2,Good,95,Moderate,2,Good,201,Very Unhealthy,23.67,87.72,Asia
926,Chad,Bousso,47,Good,2,Good,7,Good,0,Good,47,Good,10.4825,16.7161,Africa
927,Germany,Brackenheim,28,Good,1,Good,28,Good,2,Good,27,Good,49.0833,9.0667,Europe
928,Italy,Brescia,59,Moderate,1,Good,35,Good,2,Good,59,Moderate,45.5389,10.2203,Europe
929,United States,Brockton,43,Good,1,Good,36,Good,4,Good,43,Good,42.0821,-71.0242,North America
930,United States,Brooklyn Park,53,Moderate,1,Good,40,Good,4,Good,53,Moderate,45.1112,-93.3505,North America
931,United States,Brookside,51,Moderate,1,Good,31,Good,6,Good,51,Moderate,39.6665,-75.7152,North America
932,Russia,Buy,21,Good,1,Good,21,Good,0,Good,18,Good,58.4833,41.5333,Asia
933,Guinea-Bissau,Cacheu,120,Unhealthy for Sensitive Groups,1,Good,27,Good,1,Good,120,Unhealthy for Sensitive Groups,12.2667,-16.1667,Africa
934,Brazil,Cafarnaum,15,Good,0,Good,14,Good,0,Good,15,Good,-11.6939,-41.4678,South America
935,Canada,Campbell River,33,Good,1,Good,33,Good,1,Good,19,Good,50.0244,-125.2475,North America
936,Brazil,Campestre,53,Moderate,1,Good,7,Good,4,Good,53,Moderate,-21.7108,-46.2458,South America
937,Brazil,Campina Grande,43,Good,0,Good,18,Good,2,Good,43,Good,-7.2306,-35.8811,South America
938,Brazil,Campos Altos,28,Good,1,Good,8,Good,2,Good,28,Good,-19.6958,-46.1708,South America
939,Brazil,Cantagalo,59,Moderate,1,Good,13,Good,3,Good,59,Moderate,-21.9808,-42.3678,South America
940,Spain,Carmona,23,Good,1,Good,19,Good,4,Good,23,Good,14.3167,121.05,Europe
941,United States,Carney,50,Good,1,Good,33,Good,4,Good,50,Good,39.405,-76.5235,North America
942,United States,Carrollton,60,Moderate,2,Good,39,Good,8,Good,60,Moderate,32.989,-96.8999,North America
943,Mexico,Catemaco,60,Moderate,1,Good,26,Good,2,Good,60,Moderate,18.4167,-95.1167,North America
944,United States,Daytona Beach,40,Good,1,Good,33,Good,5,Good,40,Good,29.1995,-81.0982,North America
945,India,Devarkonda,93,Moderate,1,Good,27,Good,0,Good,93,Moderate,16.6919,78.9207,Asia
946,Armenia,Dilijan,32,Good,1,Good,27,Good,0,Good,32,Good,40.7408,44.8631,Europe
947,Russia,Divnoye,39,Good,1,Good,39,Good,0,Good,24,Good,45.9072,43.3558,Asia
948,Thailand,Dok Kham Tai,24,Good,0,Good,24,Good,0,Good,17,Good,19.162,99.9926,Asia
949,United States,Chaska,52,Moderate,1,Good,42,Good,2,Good,52,Moderate,44.8164,-93.6091,North America
950,United Kingdom,Chatham,26,Good,1,Good,23,Good,6,Good,26,Good,42.4229,-82.1324,Europe
951,France,Chauny,31,Good,1,Good,25,Good,2,Good,31,Good,49.6156,3.2192,Europe
952,Russia,Chegem Vtoroy,50,Good,1,Good,25,Good,4,Good,50,Good,43.5667,43.5833,Asia
953,China,Chengde,99,Moderate,2,Good,70,Moderate,1,Good,99,Moderate,40.9604,117.93,Asia
954,Russia,Chernigovka,35,Good,1,Good,35,Good,0,Good,29,Good,44.3406,132.5689,Asia
955,Nicaragua,Chichigalpa,66,Moderate,1,Good,17,Good,4,Good,66,Moderate,12.5722,-87.0267,North America
956,Mexico,Chichihualco,46,Good,1,Good,11,Good,3,Good,46,Good,17.655,-99.674,North America
957,Mexico,Chicoloapan,204,Very Unhealthy,3,Good,10,Good,15,Good,204,Very Unhealthy,19.4167,-98.9,North America
958,United States,Chubbuck,52,Moderate,2,Good,3,Good,7,Good,52,Moderate,42.9263,-112.4623,North America
959,United States,Clarksburg,42,Good,1,Good,40,Good,2,Good,42,Good,39.2246,-77.2659,North America
960,United States,Clarksdale,55,Moderate,1,Good,27,Good,2,Good,55,Moderate,34.1933,-90.5693,North America
961,Philippines,Claveria,95,Moderate,1,Good,23,Good,0,Good,95,Moderate,8.61,124.8947,Asia
962,China,Dongning,35,Good,1,Good,35,Good,0,Good,26,Good,44.0608,131.1187,Asia
963,Austria,Dornbirn,29,Good,1,Good,25,Good,3,Good,29,Good,47.4167,9.75,Europe
964,Germany,Dorsten,33,Good,1,Good,24,Good,3,Good,33,Good,51.66,6.9642,Europe
965,Germany,Dortmund,35,Good,1,Good,24,Good,3,Good,35,Good,51.5167,7.4667,Europe
966,Belgium,Dour,39,Good,1,Good,23,Good,4,Good,39,Good,50.3979,3.7807,Europe
967,United Arab Emirates,Dubai,152,Unhealthy,1,Good,140,Unhealthy for Sensitive Groups,3,Good,152,Unhealthy,25.2631,55.2972,Asia
968,United States,East Point,66,Moderate,2,Good,28,Good,11,Good,66,Moderate,33.6696,-84.4701,North America
969,Canada,Edmundston,75,Moderate,1,Good,30,Good,0,Good,75,Moderate,47.3765,-68.3253,North America
970,Albania,Elbasan,71,Moderate,1,Good,44,Good,1,Good,71,Moderate,41.1111,20.0806,Europe
971,United States,Emporia,59,Moderate,1,Good,32,Good,3,Good,59,Moderate,38.4028,-96.1932,North America
972,China,Encheng,64,Moderate,2,Good,27,Good,5,Good,64,Moderate,22.1879,112.3131,Asia
973,Nigeria,Enugu,170,Unhealthy,8,Good,15,Good,6,Good,170,Unhealthy,6.4528,7.5111,Africa
974,Germany,Eppelborn,28,Good,1,Good,26,Good,3,Good,28,Good,49.4022,6.9706,Europe
975,Germany,Eppstein,30,Good,0,Good,30,Good,1,Good,28,Good,50.1333,8.4,Europe
976,Finland,Espoo,24,Good,1,Good,24,Good,8,Good,12,Good,60.2056,24.6556,Europe
977,United States,Fairmount,49,Good,1,Good,49,Good,2,Good,32,Good,43.0414,-76.2485,North America
978,United Kingdom,Farnham,29,Good,1,Good,14,Good,11,Good,29,Good,51.215,-0.799,Europe
979,Bangladesh,Feni,157,Unhealthy,2,Good,36,Good,2,Good,157,Unhealthy,23.0183,91.41,Asia
980,Chad,Fianga,58,Moderate,2,Good,7,Good,0,Good,58,Moderate,9.9153,15.1375,Africa
981,Germany,Filderstadt,34,Good,1,Good,26,Good,2,Good,34,Good,48.6803,9.2183,Europe
982,Italy,Fiume Veneto,46,Good,1,Good,46,Good,1,Good,37,Good,45.9333,12.7333,Europe
983,United States,Florin,65,Moderate,2,Good,30,Good,12,Good,65,Moderate,38.4832,-121.4043,North America
984,Cuba,Fomento,56,Moderate,1,Good,17,Good,3,Good,56,Moderate,22.1053,-79.7203,North America
985,United States,Forest Hills,72,Moderate,2,Good,16,Good,13,Good,72,Moderate,42.9577,-85.4895,North America
986,United States,Forrest City,58,Moderate,1,Good,26,Good,2,Good,58,Moderate,35.0135,-90.7931,North America
987,United Kingdom,Bolton,25,Good,1,Good,25,Good,3,Good,23,Good,53.578,-2.429,Europe
988,India,Baj Baj,186,Unhealthy,9,Good,6,Good,21,Good,186,Unhealthy,22.4828,88.1818,Asia
989,Australia,Ballarat,22,Good,0,Good,13,Good,6,Good,22,Good,-37.5608,143.8475,Oceania
990,Thailand,Ban Dung,82,Moderate,3,Good,8,Good,5,Good,82,Moderate,17.6986,103.2611,Asia
991,Indonesia,Bandung,198,Unhealthy,11,Good,6,Good,30,Good,198,Unhealthy,-6.912,107.6097,Asia
992,Dominican Republic,Barahona,108,Unhealthy for Sensitive Groups,1,Good,29,Good,1,Good,108,Unhealthy for Sensitive Groups,18.2,-71.1,North America
993,Guatemala,Barberena,63,Moderate,1,Good,26,Good,1,Good,63,Moderate,14.3167,-90.3667,North America
994,Eritrea,Barentu,76,Moderate,1,Good,28,Good,0,Good,76,Moderate,15.1167,37.6,Africa
995,Switzerland,Basel,60,Moderate,1,Good,52,Moderate,0,Good,60,Moderate,47.5547,7.5906,Europe
996,Nigeria,Bauchi,91,Moderate,2,Good,40,Good,0,Good,91,Moderate,10.3158,9.8442,Africa
997,United States,Beach Park,59,Moderate,1,Good,23,Good,4,Good,59,Moderate,42.426,-87.8583,North America
998,Germany,Bebra,57,Moderate,1,Good,48,Good,0,Good,57,Moderate,50.9711,9.7903,Europe
999,Russia,Belaya Kholunitsa,29,Good,1,Good,27,Good,1,Good,29,Good,58.85,50.8667,Asia
1000,Brazil,Belo Horizonte,41,Good,1,Good,21,Good,0,Good,41,Good,-19.9167,-43.9333,South America
1001,Canada,Beloeil,39,Good,1,Good,26,Good,1,Good,39,Good,45.5667,-73.2,North America
1002,Russia,Belorechensk,47,Good,1,Good,47,Good,1,Good,30,Good,44.7686,39.8733,Asia
1003,United States,Bergenfield,53,Moderate,1,Good,46,Good,3,Good,53,Moderate,40.9236,-73.9982,North America
1004,Netherlands,Beuningen,39,Good,1,Good,39,Good,0,Good,39,Good,51.8667,5.7667,Europe
1005,Netherlands,Beverwijk,37,Good,1,Good,37,Good,0,Good,31,Good,52.4833,4.65,Europe
1006,Japan,Bibai,44,Good,1,Good,32,Good,3,Good,44,Good,43.3329,141.8538,Asia
1007,United States,Biddeford,31,Good,1,Good,31,Good,1,Good,28,Good,43.4673,-70.4511,North America
1008,Brazil,Birigui,60,Moderate,1,Good,24,Good,0,Good,60,Moderate,-21.2886,-50.34,South America
1009,Russia,Birsk,41,Good,1,Good,41,Good,0,Good,7,Good,55.4167,55.5333,Asia
1010,Italy,Bitonto,54,Moderate,1,Good,53,Moderate,0,Good,54,Moderate,41.1167,16.6833,Europe
1011,United States,Bloomfield,52,Moderate,1,Good,40,Good,3,Good,52,Moderate,40.8098,-74.1869,North America
1012,Chad,Bol,70,Moderate,1,Good,17,Good,0,Good,70,Moderate,13.46,14.74,Africa
1013,Russia,Bolotnoye,43,Good,1,Good,16,Good,3,Good,43,Good,55.6833,84.4167,Asia
1014,Brazil,Bom Sucesso,33,Good,1,Good,23,Good,0,Good,33,Good,-21.0328,-44.7578,South America
1015,Brazil,Bonito,35,Good,1,Good,9,Good,0,Good,35,Good,-8.47,-35.7289,South America
1016,Germany,Bornheim,56,Moderate,1,Good,48,Good,0,Good,56,Moderate,50.7592,7.005,Europe
1017,Czechia,Boskovice,72,Moderate,1,Good,45,Good,0,Good,72,Moderate,49.4875,16.66,Europe
1018,Belgium,Boussu,55,Moderate,1,Good,42,Good,1,Good,55,Moderate,50.4331,3.7961,Europe
1019,Italy,Bovolone,84,Moderate,1,Good,59,Moderate,0,Good,84,Moderate,45.25,11.1333,Europe
1020,China,Bozhou,162,Unhealthy,8,Good,44,Good,24,Good,162,Unhealthy,33.8626,115.7742,Asia
1021,France,Bressuire,39,Good,1,Good,39,Good,0,Good,22,Good,46.84,-0.4886,Europe
1022,Brazil,Breves,19,Good,0,Good,14,Good,0,Good,19,Good,-1.6819,-50.48,South America
1023,Barbados,Bridgetown,73,Moderate,0,Good,24,Good,0,Good,73,Moderate,13.0975,-59.6167,North America
1024,United States,Bridgewater,45,Good,1,Good,38,Good,2,Good,45,Good,40.5934,-74.6076,North America
1025,United Kingdom,Brighouse,41,Good,1,Good,37,Good,1,Good,41,Good,53.707,-1.794,Europe
1026,France,Brignais,68,Moderate,1,Good,58,Moderate,0,Good,68,Moderate,45.6739,4.7542,Europe
1027,Italy,Bronte,56,Moderate,1,Good,46,Good,0,Good,56,Moderate,37.7833,14.8333,Europe
1028,Italy,Brunico,51,Moderate,1,Good,47,Good,0,Good,51,Moderate,46.7963,11.9355,Europe
1029,India,Bulandshahr,170,Unhealthy,5,Good,48,Good,12,Good,170,Unhealthy,28.4069,77.8497,Asia
1030,Germany,Burbach,54,Moderate,1,Good,48,Good,0,Good,54,Moderate,50.7444,8.0861,Europe
1031,Brazil,Buriti Bravo,20,Good,0,Good,18,Good,0,Good,20,Good,-5.8369,-43.8339,South America
1032,Brazil,Buritis,19,Good,0,Good,19,Good,0,Good,18,Good,-15.6178,-46.4228,South America
1033,United States,Burlingame,50,Good,1,Good,34,Good,2,Good,50,Good,37.5859,-122.3667,North America
1034,Congo,Butembo,45,Good,1,Good,16,Good,0,Good,45,Good,0.15,29.2833,Africa
1035,Uganda,Buwenge,118,Unhealthy for Sensitive Groups,3,Good,16,Good,1,Good,118,Unhealthy for Sensitive Groups,0.6503,33.1703,Africa
1036,Mexico,Calpulalpan,279,Very Unhealthy,2,Good,38,Good,3,Good,279,Very Unhealthy,19.5869,-98.5683,North America
1037,Brazil,Cambuquira,42,Good,1,Good,21,Good,0,Good,42,Good,-21.8583,-45.2911,South America
1038,United States,Campbell,48,Good,1,Good,32,Good,3,Good,48,Good,37.2802,-121.9539,North America
1039,United States,Cape Canaveral,87,Moderate,1,Good,87,Moderate,1,Good,30,Good,28.3933,-80.6049,North America
1040,Venezuela,Caraballeda,74,Moderate,1,Good,43,Good,1,Good,74,Moderate,10.6167,-66.85,South America
1041,Brazil,Carangola,24,Good,0,Good,20,Good,0,Good,24,Good,-20.7328,-42.0289,South America
1042,Haiti,Carrefour,112,Unhealthy for Sensitive Groups,1,Good,38,Good,0,Good,112,Unhealthy for Sensitive Groups,18.5344,-72.4094,North America
1043,Brazil,Castanhal,30,Good,0,Good,18,Good,0,Good,30,Good,-1.2969,-47.9219,South America
1044,Italy,Castrolibero,49,Good,1,Good,49,Good,0,Good,45,Good,39.3167,16.2,Europe
1045,Italy,Cesano Maderno,92,Moderate,1,Good,65,Moderate,0,Good,92,Moderate,45.6307,9.1456,Europe
1046,France,Challans,43,Good,1,Good,43,Good,0,Good,16,Good,46.8467,-1.8781,Europe
1047,Thailand,Chiang Rai,67,Moderate,2,Good,13,Good,2,Good,67,Moderate,19.9094,99.8275,Asia
1048,Mexico,Chihuahua,64,Moderate,1,Good,31,Good,1,Good,64,Moderate,28.6353,-106.0889,North America
1049,Guatemala,Chiquimula,56,Moderate,1,Good,22,Good,0,Good,56,Moderate,14.7833,-89.5333,North America
1050,Moldova,Chisinau,55,Moderate,1,Good,49,Good,0,Good,55,Moderate,47.0228,28.8353,Europe
1051,United Kingdom,Christchurch,37,Good,1,Good,32,Good,2,Good,37,Good,-43.531,172.6365,Europe
1052,Russia,Chudovo,29,Good,1,Good,29,Good,0,Good,8,Good,59.1167,31.6667,Asia
1053,Colombia,Cimitarra,95,Moderate,2,Good,25,Good,0,Good,95,Moderate,6.3167,-73.95,South America
1054,United States,Cinnaminson,48,Good,1,Good,48,Good,1,Good,40,Good,40.0008,-74.993,North America
1055,United States,Clark,50,Good,1,Good,47,Good,2,Good,50,Good,40.6203,-74.3134,North America
1056,Belgium,Aalst,51,Moderate,1,Good,38,Good,2,Good,51,Moderate,50.9383,4.0392,Europe
1057,Iran,Abadan,164,Unhealthy,1,Good,134,Unhealthy for Sensitive Groups,1,Good,164,Unhealthy,38.0517,58.21,Asia
1058,Russia,Abaza,30,Good,1,Good,30,Good,0,Good,15,Good,52.6481,90.0739,Asia
1059,Nigeria,Abuja,73,Moderate,2,Good,36,Good,0,Good,73,Moderate,9.0667,7.4833,Africa
1060,Germany,Achim,41,Good,0,Good,41,Good,0,Good,26,Good,53.0653,9.0342,Europe
1061,India,Adalaj,162,Unhealthy,3,Good,22,Good,11,Good,162,Unhealthy,23.17,72.58,Asia
1062,Algeria,Adrar,106,Unhealthy for Sensitive Groups,0,Good,45,Good,0,Good,106,Unhealthy for Sensitive Groups,27.8742,-0.2939,Africa
1063,Russia,Agidel,41,Good,1,Good,41,Good,0,Good,18,Good,55.9,53.9333,Asia
1064,Italy,Agrate Brianza,89,Moderate,1,Good,64,Moderate,0,Good,89,Moderate,45.5833,9.35,Europe
1065,Germany,Ahrensburg,44,Good,1,Good,44,Good,0,Good,22,Good,53.6747,10.2411,Europe
1066,Hungary,Ajka,60,Moderate,1,Good,60,Moderate,0,Good,57,Moderate,47.1006,17.5522,Europe
1067,Pakistan,Akora,182,Unhealthy,5,Good,51,Moderate,8,Good,182,Unhealthy,33.9925,72.145,Asia
1068,Turkey,Aksaray,46,Good,0,Good,46,Good,0,Good,37,Good,38.3742,34.0289,Europe
1069,Italy,Alba,65,Moderate,1,Good,64,Moderate,0,Good,65,Moderate,44.7,8.0333,Europe
1070,United Kingdom,Alfreton,40,Good,1,Good,33,Good,1,Good,40,Good,53.097,-1.38,Europe
1071,Italy,Alghero,48,Good,1,Good,48,Good,0,Good,27,Good,40.56,8.315,Europe
1072,United States,Alice,44,Good,0,Good,25,Good,1,Good,44,Good,27.7556,-98.0653,North America
1073,Netherlands,Alkmaar,37,Good,0,Good,37,Good,0,Good,32,Good,52.6333,4.75,Europe
1074,Netherlands,Almelo,37,Good,1,Good,37,Good,0,Good,29,Good,52.35,6.6667,Europe
1075,Guatemala,Alotenango,88,Moderate,2,Good,19,Good,4,Good,88,Moderate,14.4878,-90.8058,North America
1076,United States,Alpena,58,Moderate,1,Good,28,Good,1,Good,58,Moderate,45.074,-83.4402,North America
1077,India,Angul,150,Unhealthy,3,Good,25,Good,16,Good,150,Unhealthy,20.8381,85.0956,Asia
1078,Ghana,Anloga,22,Good,0,Good,21,Good,0,Good,22,Good,5.7919,0.9003,Africa
